frame_timestamp_original,frame_timestamp_new,residual,time_hardwaremanager,time_carla,brake,steer,throttle,ego_vx,ego_vy,ego_vz,ego_x,ego_y,ego_z,ego_yaw,ego_pitch,ego_roll,time_carla_s
1724766496.0591173,0.0,0.0,1724766496056623000,1724766496055120700,-1.0,0.0,1.0,1.6189740108529804e-06,9.907459570968058e-06,-0.0025559617206454277,51.5718879699707,330.84954833984375,0.30571448802948,8.201379387173802e-05,-0.13402879238128662,-0.16058349609375,1724766496.0551207
1724766496.1222703,0.05,-0.013153028488159177,1724766496109777000,1724766496117286300,-1.0,0.0,1.0,1.5158948372118175e-06,9.12924406293314e-06,-0.0028879225719720125,51.5718879699707,330.84954833984375,0.305565744638443,8.1431440776214e-05,-0.1343429833650589,-0.1603088080883026,1724766496.1172864
1724766496.1676946,0.1,-0.008577251434326166,1724766496162175500,1724766496169691600,-1.0,0.0,1.0,-2.513890649424866e-06,-7.624656518601114e-06,-0.0011065470753237605,51.5718879699707,330.84954833984375,0.30549487471580505,8.126305328914896e-05,-0.13446593284606934,-0.1602172702550888,1724766496.1696918
1724766496.2161546,0.15000000000000002,-0.007037258148193337,1724766496206077800,1724766496212651900,-1.0,0.0,1.0,-1.073953285413154e-06,-7.74865475250408e-06,-0.0014568553306162357,51.5718879699707,330.84954833984375,0.3054170608520508,8.162348240148276e-05,-0.13467083871364594,-0.16009521484375,1724766496.212652
1724766496.264315,0.2,-0.005197572708129872,1724766496271323600,1724766496267334300,-1.0,0.0,1.0,-4.686805255005311e-07,-6.464839771069819e-06,-0.0013472269056364894,51.5718879699707,330.84954833984375,0.30536893010139465,8.140251884469762e-05,-0.1348552405834198,-0.160003662109375,1724766496.2673345
1724766496.3134332,0.25,-0.004315853118896484,1724766496313433100,1724766496309443400,-1.0,0.0,1.0,-1.4164569392960402e-06,-3.4701747608778533e-06,-0.0005477861850522459,51.5718879699707,330.84954833984375,0.30533701181411743,8.123063162202016e-05,-0.13501234352588654,-0.1599426120519638,1724766496.3094435
1724766496.3596334,0.30000000000000004,-0.0005161285400390181,1724766496368205600,1724766496363622400,-1.0,0.0,1.0,-8.705454774826649e-07,-2.517626398912398e-06,-0.00043687396100722253,51.5718879699707,330.84954833984375,0.3053288459777832,8.107724715955555e-05,-0.13516943156719208,-0.1598815619945526,1724766496.3636224
1724766496.4291341,0.35000000000000003,-0.02001681327819821,1724766496432125400,1724766496426115000,-1.0,0.0,1.0,9.548972457196214e-07,-1.5139823972276645e-06,-0.0004354093980509788,51.5718879699707,330.84954833984375,0.3053146302700043,8.107724715955555e-05,-0.13516943156719208,-0.1598815619945526,1724766496.4261153
1724766496.4748173,0.4,-0.01569995880126951,1724766496486106500,1724766496478617200,-1.0,0.0,1.0,-9.877438742478262e-07,6.822198201916763e-07,0.0003751421463675797,51.5718879699707,330.84954833984375,0.3053111433982849,8.107724715955555e-05,-0.13516943156719208,-0.1598815619945526,1724766496.4786172
1724766496.5242589,0.45,-0.01514153480529784,1724766496528607400,1724766496520268900,-1.0,0.0,1.0,5.234390982877812e-07,-1.1261846566412714e-06,-0.0002684248611330986,51.5718879699707,330.84954833984375,0.3052941560745239,8.107724715955555e-05,-0.13516943156719208,-0.1598815619945526,1724766496.520269
1724766496.5701046,0.5,-0.010987281799316406,1724766496582659800,1724766496573094900,-1.0,0.0,1.0,-1.62564140282484e-06,1.5404318673972739e-06,0.0006506132194772363,51.5718879699707,330.84954833984375,0.3053075671195984,8.107724715955555e-05,-0.13516943156719208,-0.1598815619945526,1724766496.573095
1724766496.6192603,0.55,-0.010142993927001909,1724766496616090700,1724766496615093800,-1.0,0.0,1.0,-9.711734350048573e-08,-2.085272683416406e-07,7.576735242764698e-06,51.5718879699707,330.84954833984375,0.3053041100502014,8.107724715955555e-05,-0.13516943156719208,-0.1598815619945526,1724766496.615094
1724766496.6718013,0.6000000000000001,-0.012684011459350497,1724766496670805100,1724766496677350400,-1.0,0.0,1.0,8.741012180735197e-08,-3.0855258614792547e-07,-6.038113497197628e-05,51.5718879699707,330.84954833984375,0.30531471967697144,8.107724715955555e-05,-0.13516943156719208,-0.1598815619945526,1724766496.6773505
1724766496.7108183,0.65,-0.0017009735107421653,1724766496702100500,1724766496708823400,-1.0,0.0,1.0,1.8295065729034832e-07,-3.886634374339337e-07,-9.148239041678607e-05,51.5718879699707,330.84954833984375,0.30531206727027893,8.107724715955555e-05,-0.13516943156719208,-0.1598815619945526,1724766496.7088234
1724766496.7761753,0.7000000000000001,-0.017057943344116144,1724766496766086700,1724766496772608000,-1.0,0.0,1.0,-9.266166216548299e-07,1.0127403129445156e-06,0.0003784759028349072,51.5718879699707,330.84954833984375,0.3052971065044403,8.107724715955555e-05,-0.13516943156719208,-0.1598815619945526,1724766496.772608
1724766496.8471668,0.75,-0.03804945945739746,1724766496841171700,1724766496846158200,-1.0,0.0,1.0,-4.754216220703711e-08,7.270461566122322e-08,1.958674329216592e-05,51.5718879699707,330.84954833984375,0.30532026290893555,8.107724715955555e-05,-0.13516943156719208,-0.1598815619945526,1724766496.8461583
1724766496.8922255,0.8,-0.03310818672180171,1724766496882650900,1724766496889233300,-1.0,0.0,1.0,-1.4591356602977612e-06,1.6483080571561004e-06,0.0006128989043645561,51.5718879699707,330.84954833984375,0.3053329288959503,8.107724715955555e-05,-0.13516943156719208,-0.1598815619945526,1724766496.8892336
1724766496.924083,0.8500000000000001,-0.01496567726135245,1724766496914270900,1724766496921092200,-1.0,0.0,1.0,2.684242872419418e-07,-3.513271735755552e-07,-0.0001207104796776548,51.5718879699707,330.84954833984375,0.3053297698497772,8.107724715955555e-05,-0.13516943156719208,-0.1598815619945526,1724766496.9210923
1724766496.974652,0.9,-0.015534734725952126,1724766496968668800,1724766496973656300,-1.0,0.0,1.0,8.977161201073613e-07,-1.1032136626454303e-06,-0.0003804913139902055,51.5718879699707,330.84954833984375,0.30532366037368774,8.107724715955555e-05,-0.13516943156719208,-0.1598815619945526,1724766496.9736564
1724766497.027473,0.9500000000000001,-0.01835565567016595,1724766497021221000,1724766497025209700,-1.0,0.0,1.0,1.0366081824031426e-06,-1.2677780887315748e-06,-0.00043554051080718637,51.5718879699707,330.84954833984375,0.30530673265457153,8.107724715955555e-05,-0.13516943156719208,-0.1598815619945526,1724766497.0252097
1724766497.072776,1.0,-0.013658761978149414,1724766497074771100,1724766497076277500,-1.0,0.0,1.0,-3.7950279363485606e-08,4.137207199050863e-08,1.762717147357762e-05,51.5718879699707,330.84954833984375,0.30531784892082214,8.107724715955555e-05,-0.13516943156719208,-0.1598815619945526,1724766497.0762775
1724766497.1171231,1.05,-0.008005809783935502,1724766497120117300,1724766497119119700,-1.0,0.0,1.0,-1.2919825849166955e-06,1.5310789649447543e-06,0.0005499315448105335,51.5718879699707,330.84954833984375,0.3053334653377533,8.107724715955555e-05,-0.13516943156719208,-0.1598815619945526,1724766497.1191196
1724766497.1645951,1.1,-0.0054778099060057706,1724766497162600400,1724766497161603100,-1.0,0.0,1.0,4.850323307437066e-07,-5.598027428277419e-07,-0.0002084978186758235,51.5718879699707,330.84954833984375,0.3053262531757355,8.107724715955555e-05,-0.13516943156719208,-0.1598815619945526,1724766497.1616032
1724766497.2111232,1.1500000000000001,-0.0020059108734129527,1724766497216109000,1724766497214115000,-1.0,0.0,1.0,4.875516879110364e-07,-5.620875072054332e-07,-0.00020974717335775495,51.5718879699707,330.84954833984375,0.30533096194267273,8.107724715955555e-05,-0.13516943156719208,-0.1598815619945526,1724766497.2141151
1724766497.2591186,1.2000000000000002,-1.2397766111504893e-06,1724766497259118600,1724766497257121300,-1.0,0.0,1.0,-1.989151066084105e-09,-2.8069086610571503e-08,1.0442701068313909e-06,51.5718879699707,330.84954833984375,0.30532822012901306,8.107724715955555e-05,-0.13516943156719208,-0.1598815619945526,1724766497.2571213
1724766497.330557,1.25,-0.021439790725708008,1724766497333549700,1724766497332552700,-1.0,0.0,1.0,3.9836987753005815e-07,-4.526782220182213e-07,-0.00016422253975179046,51.5718879699707,330.84954833984375,0.30532944202423096,8.107724715955555e-05,-0.13516943156719208,-0.1598815619945526,1724766497.332553
1724766497.3786309,1.3,-0.01951355934143062,1724766497377630400,1724766497374661300,-1.0,0.0,1.0,1.0690757790143834e-06,-1.205078433486051e-06,-0.0004524773103184998,51.5718879699707,330.84954833984375,0.3053276538848877,8.107724715955555e-05,-0.13516943156719208,-0.1598815619945526,1724766497.3746614
1724766497.4283001,1.35,-0.019182825088500888,1724766497430298200,1724766497429300100,-1.0,0.0,1.0,-6.225121751413099e-07,7.503317078771943e-07,0.0002666008658707142,51.5718879699707,330.84954833984375,0.30531635880470276,8.107724715955555e-05,-0.13516943156719208,-0.1598815619945526,1724766497.4293003
1724766497.4786742,1.4000000000000001,-0.019556856155395375,1724766497483660900,1724766497482663500,-1.0,0.0,1.0,-2.4032064516177343e-07,2.9358366759879573e-07,0.00010426550579722971,51.5718879699707,330.84954833984375,0.3053063750267029,8.107724715955555e-05,-0.13516943156719208,-0.1598815619945526,1724766497.4826636
1724766497.5246365,1.4500000000000002,-0.015519189834594549,1724766497527170300,1724766497526143000,-1.0,0.0,1.0,-1.2544403489300748e-06,1.4020527032698737e-06,0.0005311871063895524,51.5718879699707,330.84954833984375,0.30532488226890564,8.107724715955555e-05,-0.13516943156719208,-0.1598815619945526,1724766497.526143
1724766497.573447,1.5,-0.014329671859741211,1724766497569456900,1724766497569456900,-1.0,0.0,1.0,1.1597873594837438e-07,-9.259141364736934e-08,-4.72600368084386e-05,51.5718879699707,330.84954833984375,0.30532488226890564,8.107724715955555e-05,-0.13516943156719208,-0.1598815619945526,1724766497.569457
1724766497.636065,1.55,-0.02694768905639644,1724766497635068600,1724766497633073000,-1.0,0.0,1.0,6.357770132581209e-08,-6.633347737761142e-08,-2.9075083148200065e-05,51.5718879699707,330.84954833984375,0.30533531308174133,8.107724715955555e-05,-0.13516943156719208,-0.1598815619945526,1724766497.633073
1724766497.6599076,1.6,-0.0007902622222899502,1724766497667395700,1724766497663895200,-1.0,0.0,1.0,-2.144826567018754e-06,2.5525862383801723e-06,0.0009149176185019314,51.5718879699707,330.84954833984375,0.30534711480140686,8.107724715955555e-05,-0.13516943156719208,-0.1598815619945526,1724766497.6638954
1724766497.7251673,1.6500000000000001,-0.016049957275390492,1724766497731648200,1724766497727658900,-1.0,0.0,1.0,4.408291829349764e-07,-5.088368766337226e-07,-0.00018772331532090902,51.5718879699707,330.84954833984375,0.30533865094184875,8.107724715955555e-05,-0.13516943156719208,-0.1598815619945526,1724766497.7276592
1724766497.770134,1.7000000000000002,-0.011016654968261541,1724766497774123300,1724766497770133900,-1.0,0.0,1.0,-1.3657003137268475e-06,1.591051500327012e-06,0.0005789733841083944,51.5718879699707,330.84954833984375,0.305355042219162,8.107724715955555e-05,-0.13516943156719208,-0.1598815619945526,1724766497.7701342
1724766497.8336112,1.75,-0.024493932723999023,1724766497829622500,1724766497834608600,-1.0,0.0,1.0,-4.799042017111788e-07,5.053342988503573e-07,0.00019949716806877404,51.5718879699707,330.84954833984375,0.3053499758243561,8.107724715955555e-05,-0.13516943156719208,-0.1598815619945526,1724766497.8346088
1724766497.8831115,1.8,-0.023994159698486284,1724766497882113600,1724766497887124700,-1.0,0.0,1.0,7.872665719332872e-07,-8.914514069147117e-07,-0.0003309712919872254,51.5718879699707,330.84954833984375,0.3053279221057892,8.107724715955555e-05,-0.13516943156719208,-0.1598815619945526,1724766497.8871248
1724766497.9312887,1.85,-0.022171401977538974,1724766497923360300,1724766497930292200,-1.0,0.0,1.0,4.435875098351971e-07,-5.818900490339729e-07,-0.0001894972810987383,51.5718879699707,330.84954833984375,0.30533313751220703,8.107724715955555e-05,-0.13516943156719208,-0.1598815619945526,1724766497.9302924
1724766497.9646776,1.9000000000000001,-0.0055602550506590465,1724766497956208500,1724766497961686100,-1.0,0.0,1.0,1.3146870969649171e-07,-2.0946251311215747e-07,-5.722490095649846e-05,51.5718879699707,330.84954833984375,0.3053317368030548,8.107724715955555e-05,-0.13516943156719208,-0.1598815619945526,1724766497.9616861
1724766498.0118127,1.9500000000000002,-0.0026953697204588067,1724766498009817700,1724766498014804500,-1.0,0.0,1.0,-9.510675909041311e-07,1.1133989801237476e-06,0.0004022035573143512,51.5718879699707,330.84954833984375,0.30533432960510254,8.107724715955555e-05,-0.13516943156719208,-0.1598815619945526,1724766498.0148046
1724766498.0672956,2.0,-0.008178234100341797,1724766498062168800,1724766498067295600,-1.0,0.0,1.0,7.578183272016759e-07,-8.939132385421544e-07,-0.00032349483808502555,51.5718879699707,330.84954833984375,0.3053159713745117,8.107724715955555e-05,-0.13516943156719208,-0.1598815619945526,1724766498.0672956
1724766498.1176407,2.0500000000000003,-0.008523416519164773,1724766498114673000,1724766498120635200,-1.0,0.0,1.0,1.0181796596953063e-06,-1.241581571775896e-06,-0.0004360656894277781,51.5718879699707,330.84954833984375,0.30528533458709717,8.107724715955555e-05,-0.13516943156719208,-0.1598815619945526,1724766498.1206353
1724766498.1662042,2.1,-0.007086896896362216,1724766498159222900,1724766498163212800,-1.0,0.0,1.0,-1.1799756975960918e-06,1.3435005712381098e-06,0.000497253960929811,51.5718879699707,330.84954833984375,0.30529677867889404,8.107724715955555e-05,-0.13516943156719208,-0.1598815619945526,1724766498.163213
1724766498.2372534,2.15,-0.02813611030578622,1724766498233110700,1724766498237253300,-1.0,0.0,1.0,-4.705082687905815e-07,5.285829729473335e-07,0.00020084534480702132,51.5718879699707,330.84954833984375,0.30528396368026733,8.107724715955555e-05,-0.13516943156719208,-0.1598815619945526,1724766498.2372534
1724766498.2860858,2.2,-0.026968526840209783,1724766498286085900,1724766498290371900,-1.0,0.0,1.0,3.42434560707261e-08,-1.4607597798033112e-08,-1.7822700101532973e-05,51.5718879699707,330.84954833984375,0.305301696062088,8.107724715955555e-05,-0.13516943156719208,-0.1598815619945526,1724766498.290372
1724766498.313645,2.25,-0.004527568817138672,1724766498307656500,1724766498311647600,-1.0,0.0,1.0,-1.332378246843291e-06,1.5617545159329893e-06,0.0005628084763884544,51.5718879699707,330.84954833984375,0.30531439185142517,8.107724715955555e-05,-0.13516943156719208,-0.1598815619945526,1724766498.3116477
1724766498.3646038,2.3000000000000003,-0.0054864406585690695,1724766498360614200,1724766498364603600,-1.0,0.0,1.0,-1.223607313249886e-07,1.5299150391001604e-07,5.398754001362249e-05,51.5718879699707,330.84954833984375,0.30531126260757446,8.107724715955555e-05,-0.13516943156719208,-0.1598815619945526,1724766498.3646038
1724766498.4101806,2.35,-0.0010632514953612393,1724766498403103100,1724766498406092800,-1.0,0.0,1.0,3.928096248273505e-07,-4.7147881332421093e-07,-0.00016458950995001942,51.5718879699707,330.84954833984375,0.30532124638557434,8.107724715955555e-05,-0.13516943156719208,-0.1598815619945526,1724766498.406093
1724766498.4601269,2.4000000000000004,-0.001009559631347301,1724766498457132500,1724766498458132800,-1.0,0.0,1.0,6.128893659251844e-08,-5.793632240624902e-08,-2.3820704882382415e-05,51.5718879699707,330.84954833984375,0.30531901121139526,8.107724715955555e-05,-0.13516943156719208,-0.1598815619945526,1724766498.4581327
1724766498.5311096,2.45,-0.02199225425720197,1724766498531109700,1724766498531109700,-1.0,0.0,1.0,5.082378606857674e-07,-6.2374215303862e-07,-0.000216278902371414,51.5718879699707,330.84954833984375,0.305307000875473,8.107724715955555e-05,-0.13516943156719208,-0.1598815619945526,1724766498.5311098
1724766498.5773225,2.5,-0.01820516586303711,1724766498574307900,1724766498573310700,-1.0,0.0,1.0,6.344823191284377e-07,-7.143458446989825e-07,-0.00026568910107016563,51.5718879699707,330.84954833984375,0.3053101897239685,8.107724715955555e-05,-0.13516943156719208,-0.1598815619945526,1724766498.5733109
1724766498.6233916,2.5500000000000003,-0.014274311065673562,1724766498628346300,1724766498628346300,-1.0,0.0,1.0,-4.749679192173062e-06,5.590939963440178e-06,0.002011945703998208,51.5718879699707,330.84954833984375,0.30532723665237427,8.107724715955555e-05,-0.13516943156719208,-0.1598815619945526,1724766498.6283464
1724766498.6745973,2.6,-0.01547994613647452,1724766498670608000,1724766498671605300,-1.0,0.0,1.0,1.3370199667406268e-06,-1.5847405165914097e-06,-0.0005693476996384561,51.5718879699707,330.84954833984375,0.3053106665611267,8.107724715955555e-05,-0.13516943156719208,-0.1598815619945526,1724766498.6716053
1724766498.720618,2.6500000000000004,-0.011500692367553356,1724766498723609900,1724766498724607500,-1.0,0.0,1.0,-6.186432415233867e-07,7.65530955959548e-07,0.00025673137861303985,51.5718879699707,330.84954833984375,0.3053187131881714,8.107724715955555e-05,-0.13516943156719208,-0.1598815619945526,1724766498.7246077
1724766498.769601,2.7,-0.010483789443969549,1724766498767602100,1724766498768602500,-1.0,0.0,1.0,-3.8380429145945527e-07,4.043447177082271e-07,0.00016131474694702774,51.5718879699707,330.84954833984375,0.3053189814090729,8.107724715955555e-05,-0.13516943156719208,-0.1598815619945526,1724766498.7686028
1724766498.8161747,2.75,-0.0070574283599853516,1724766498821533900,1724766498821533900,-1.0,0.0,1.0,1.1229602847606657e-07,-1.1036681257792225e-07,-4.950104630552232e-05,51.5718879699707,330.84954833984375,0.30532586574554443,8.107724715955555e-05,-0.13516943156719208,-0.1598815619945526,1724766498.8215342
1724766498.865099,2.8000000000000003,-0.005981636047363015,1724766498865098900,1724766498863104000,-1.0,0.0,1.0,3.295867827546317e-07,-4.236875099650206e-07,-0.00014170818030834198,51.5718879699707,330.84954833984375,0.30532070994377136,8.107724715955555e-05,-0.13516943156719208,-0.1598815619945526,1724766498.863104
1724766498.926281,2.85,-0.017163658142089755,1724766498929275400,1724766498927279000,-1.0,0.0,1.0,4.1173089471158164e-07,-3.893695748047321e-07,-0.00016697902174200863,51.5718879699707,330.84954833984375,0.30531665682792664,8.107724715955555e-05,-0.13516943156719208,-0.1598815619945526,1724766498.9272792
1724766498.9741116,2.9000000000000004,-0.014994239807128551,1724766498972117000,1724766498970121100,-1.0,0.0,1.0,-1.3759998296336562e-07,1.5396818753288244e-07,5.781163417850621e-05,51.5718879699707,330.84954833984375,0.30531051754951477,8.107724715955555e-05,-0.13516943156719208,-0.1598815619945526,1724766498.9701214
1724766499.0176132,2.95,-0.00849585533142072,1724766499016103700,1724766499022602700,-1.0,0.0,1.0,-2.57923289836981e-07,2.8483262326517433e-07,0.00010906728130066767,51.5718879699707,330.84954833984375,0.30530956387519836,8.107724715955555e-05,-0.13516943156719208,-0.1598815619945526,1724766499.0226028
1724766499.0701945,3.0,-0.011077165603637695,1724766499069196500,1724766499075181300,-1.0,0.0,1.0,1.1714413403751678e-06,-1.3420236655292683e-06,-0.0004939766949974,51.5718879699707,330.84954833984375,0.30530670285224915,8.107724715955555e-05,-0.13516943156719208,-0.1598815619945526,1724766499.0751815
1724766499.1163313,3.0500000000000003,-0.007214021682738991,1724766499112340600,1724766499117837400,-1.0,0.0,1.0,6.687918130410253e-07,-8.035772225412074e-07,-0.0002847311261575669,51.5718879699707,330.84954833984375,0.30529338121414185,8.107724715955555e-05,-0.13516943156719208,-0.1598815619945526,1724766499.1178374
1724766499.1633086,3.1,-0.004191303253173739,1724766499157324700,1724766499160316300,-1.0,0.0,1.0,-5.579053095061681e-07,6.450792398027261e-07,0.0002355186443310231,51.5718879699707,330.84954833984375,0.3053170144557953,8.107724715955555e-05,-0.13516943156719208,-0.1598815619945526,1724766499.1603165
1724766499.215325,3.1500000000000004,-0.006207799911498668,1724766499209342800,1724766499212334200,-1.0,0.0,1.0,-1.0269112635796773e-06,1.197277470055269e-06,0.0004384277272038162,51.5718879699707,330.84954833984375,0.30528536438941956,8.107724715955555e-05,-0.13516943156719208,-0.1598815619945526,1724766499.2123342
1724766499.2693882,3.2,-0.010270881652831854,1724766499262153300,1724766499265142900,-1.0,0.0,1.0,-5.226921757639502e-07,5.847705892847443e-07,0.00022417014406528324,51.5718879699707,330.84954833984375,0.3053054213523865,8.107724715955555e-05,-0.13516943156719208,-0.1598815619945526,1724766499.265143
1724766499.3206158,3.25,-0.011498451232910156,1724766499317621400,1724766499318621600,-1.0,0.0,1.0,-1.3851068558778934e-07,1.771438320474772e-07,5.87701506447047e-05,51.5718879699707,330.84954833984375,0.3053184151649475,8.107724715955555e-05,-0.13516943156719208,-0.1598815619945526,1724766499.3186219
1724766499.3667793,3.3000000000000003,-0.007662010192870827,1724766499371227300,1724766499372225000,-1.0,0.0,1.0,-5.007030381420918e-07,5.879900299987639e-07,0.00021215602464508265,51.5718879699707,330.84954833984375,0.3053096830844879,8.107724715955555e-05,-0.13516943156719208,-0.1598815619945526,1724766499.372225
1724766499.416234,3.35,-0.007116699218749911,1724766499412731800,1724766499413729300,-1.0,0.0,1.0,6.749624503754603e-07,-7.752654482828802e-07,-0.00028701123665086925,51.5718879699707,330.84954833984375,0.30530139803886414,8.107724715955555e-05,-0.13516943156719208,-0.1598815619945526,1724766499.4137294
1724766499.4615018,3.4000000000000004,-0.002384519577026012,1724766499464494000,1724766499464494000,-1.0,0.0,1.0,9.127379030360316e-08,-1.8304773163890786e-07,-4.332151365815662e-05,51.5718879699707,330.84954833984375,0.30531036853790283,8.107724715955555e-05,-0.13516943156719208,-0.1598815619945526,1724766499.4644942
1724766499.513569,3.45,-0.004451799392700018,1724766499519126200,1724766499518129100,-1.0,0.0,1.0,-9.028922249854077e-07,1.0100965255332994e-06,0.0003823786973953247,51.5718879699707,330.84954833984375,0.30532529950141907,8.107724715955555e-05,-0.13516943156719208,-0.1598815619945526,1724766499.5181293
1724766499.5726612,3.5,-0.013543844223022461,1724766499572661300,1724766499571664100,-1.0,0.0,1.0,6.076883209971129e-07,-6.965223633415007e-07,-0.000258632586337626,51.5718879699707,330.84954833984375,0.30531758069992065,8.107724715955555e-05,-0.13516943156719208,-0.1598815619945526,1724766499.5716643
1724766499.6196244,3.5500000000000003,-0.010507059097289773,1724766499626122200,1724766499624612000,-1.0,0.0,1.0,9.544261558858125e-08,-7.546318414597408e-08,-4.164350320934318e-05,51.5718879699707,330.84954833984375,0.30532485246658325,8.107724715955555e-05,-0.13516943156719208,-0.1598815619945526,1724766499.624612
1724766499.669126,3.6,-0.010008716583251864,1724766499668130300,1724766499668130300,-1.0,0.0,1.0,4.2975966607627925e-07,-5.588905196418636e-07,-0.0001840141776483506,51.5718879699707,330.84954833984375,0.30531978607177734,8.107724715955555e-05,-0.13516943156719208,-0.1598815619945526,1724766499.6681304
1724766499.7243671,3.6500000000000004,-0.015249824523925426,1724766499720376900,1724766499720376900,-1.0,0.0,1.0,1.5277895215604076e-07,-2.1125877935901372e-07,-6.472015957115218e-05,51.5718879699707,330.84954833984375,0.30532553791999817,8.107724715955555e-05,-0.13516943156719208,-0.1598815619945526,1724766499.720377
1724766499.7796092,3.7,-0.020491886138915838,1724766499784594700,1724766499783597500,-1.0,0.0,1.0,-5.590546265921148e-07,6.427158609767503e-07,0.00023736957518849522,51.5718879699707,330.84954833984375,0.30534300208091736,8.107724715955555e-05,-0.13516943156719208,-0.1598815619945526,1724766499.7835977
1724766499.8271577,3.75,-0.01804041862487793,1724766499827157700,1724766499826139300,-1.0,0.0,1.0,7.077733243932016e-07,-7.969417197273287e-07,-0.0002975202805828303,51.5718879699707,330.84954833984375,0.3053332269191742,8.107724715955555e-05,-0.13516943156719208,-0.1598815619945526,1724766499.8261395
1724766499.8631535,3.8000000000000003,-0.004036140441894265,1724766499859161800,1724766499858165100,-1.0,0.0,1.0,-4.90111176532082e-07,6.134914656286128e-07,0.00020619614224415272,51.5718879699707,330.84954833984375,0.30533769726753235,8.107724715955555e-05,-0.13516943156719208,-0.1598815619945526,1724766499.858165
1724766499.909127,3.85,-9.67979431143462e-06,1724766499912119300,1724766499911121600,-1.0,0.0,1.0,-3.967760164869105e-08,4.128400732383852e-08,1.8647595425136387e-05,51.5718879699707,330.84954833984375,0.305338978767395,8.107724715955555e-05,-0.13516943156719208,-0.1598815619945526,1724766499.9111218
1724766499.9702969,3.9000000000000004,-0.011179542541503551,1724766499976786900,1724766499973289400,-1.0,0.0,1.0,-8.096670285340224e-07,9.350123946205713e-07,0.00034469764796085656,51.5718879699707,330.84954833984375,0.30533936619758606,8.107724715955555e-05,-0.13516943156719208,-0.1598815619945526,1724766499.9732895
1724766500.0184727,3.95,-0.009355354309081854,1724766500009609300,1724766500016101800,-1.0,0.0,1.0,1.4620970887335716e-06,-1.707264232209127e-06,-0.0006194114685058594,51.5718879699707,330.84954833984375,0.3053216338157654,8.107724715955555e-05,-0.13516943156719208,-0.1598815619945526,1724766500.016102
1724766500.0708854,4.0,-0.011768102645874023,1724766500065244200,1724766500069889300,-1.0,0.0,1.0,-1.0023877621279098e-06,1.173447230939928e-06,0.0004273736849427223,51.5718879699707,330.84954833984375,0.30532127618789673,8.107724715955555e-05,-0.13516943156719208,-0.1598815619945526,1724766500.0698893
1724766500.116967,4.05,-0.007849645614624201,1724766500118122000,1724766500122111800,-1.0,0.0,1.0,7.555179398766043e-11,-3.267279424790104e-08,4.0719851313042454e-06,51.5718879699707,330.84954833984375,0.30532127618789673,8.107724715955555e-05,-0.13516943156719208,-0.1598815619945526,1724766500.1221118
1724766500.1681256,4.1000000000000005,-0.009008312225341264,1724766500161602900,1724766500164594000,-1.0,0.0,1.0,4.0654224875424916e-08,-3.915256385766952e-08,-1.7703498087939806e-05,51.5718879699707,330.84954833984375,0.3053334951400757,8.107724715955555e-05,-0.13516943156719208,-0.1598815619945526,1724766500.164594
1724766500.2221076,4.15,-0.012990331649779918,1724766500216752400,1724766500216752400,-1.0,0.0,1.0,-6.009408934914973e-07,7.219973099381605e-07,0.00025106786051765084,51.5718879699707,330.84954833984375,0.305337131023407,8.107724715955555e-05,-0.13516943156719208,-0.1598815619945526,1724766500.2167525
1724766500.2692554,4.2,-0.010138082504272283,1724766500271249600,1724766500271249600,-1.0,0.0,1.0,-1.9589337796332984e-07,2.0095974662126537e-07,8.21140783955343e-05,51.5718879699707,330.84954833984375,0.30532845854759216,8.107724715955555e-05,-0.13516943156719208,-0.1598815619945526,1724766500.2712498
1724766500.3235946,4.25,-0.014477252960205078,1724766500327125100,1724766500324592600,-1.0,0.0,1.0,1.1474219263618579e-07,-1.1233626651119266e-07,-5.472214979818091e-05,51.5718879699707,330.84954833984375,0.3053373396396637,8.107724715955555e-05,-0.13516943156719208,-0.1598815619945526,1724766500.3245928
1724766500.3691366,4.3,-0.01001925468444842,1724766500372129500,1724766500367143100,-1.0,0.0,1.0,6.364891191878996e-07,-7.293650128303852e-07,-0.00027159228920936584,51.5718879699707,330.84954833984375,0.3053301274776459,8.107724715955555e-05,-0.13516943156719208,-0.1598815619945526,1724766500.3671434
1724766500.4182167,4.3500000000000005,-0.00909938812255806,1724766500426195400,1724766500420210600,-1.0,0.0,1.0,3.823430176908005e-07,-4.246047353717586e-07,-0.00016497622709721327,51.5718879699707,330.84954833984375,0.30532678961753845,8.107724715955555e-05,-0.13516943156719208,-0.1598815619945526,1724766500.4202108
1724766500.463598,4.4,-0.004480695724486949,1724766500459608400,1724766500462599400,-1.0,0.0,1.0,7.280706313395058e-07,-8.045830099945306e-07,-0.00031136165489442647,51.5718879699707,330.84954833984375,0.30532771348953247,8.107724715955555e-05,-0.13516943156719208,-0.1598815619945526,1724766500.4625995
1724766500.5116076,4.45,-0.002490329742431463,1724766500523116900,1724766500516107100,-1.0,0.0,1.0,4.7625809429518995e-07,-5.981038384561543e-07,-0.00020415891776792705,51.5718879699707,330.84954833984375,0.3053230345249176,8.107724715955555e-05,-0.13516943156719208,-0.1598815619945526,1724766500.516107
1724766500.579773,4.5,-0.02065563201904297,1724766500578775900,1724766500578775900,-1.0,0.0,1.0,1.0204441878158832e-06,-1.1561824067030102e-06,-0.00043330222251825035,51.5718879699707,330.84954833984375,0.30530667304992676,8.107724715955555e-05,-0.13516943156719208,-0.1598815619945526,1724766500.578776
1724766500.624088,4.55,-0.01497073173522967,1724766500622093600,1724766500621095100,-1.0,0.0,1.0,-6.736053137501585e-07,7.480295494133316e-07,0.00028990398277528584,51.5718879699707,330.84954833984375,0.3053131401538849,8.107724715955555e-05,-0.13516943156719208,-0.1598815619945526,1724766500.6210952
1724766500.6693096,4.6000000000000005,-0.010192298889159623,1724766500675293000,1724766500674295800,-1.0,0.0,1.0,-7.366841714429029e-07,8.919975584831263e-07,0.00031221273820847273,51.5718879699707,330.84954833984375,0.30531254410743713,8.107724715955555e-05,-0.13516943156719208,-0.1598815619945526,1724766500.674296
1724766500.7168736,4.65,-0.007756328582763317,1724766500717871200,1724766500717871200,-1.0,0.0,1.0,-2.3708334140337683e-07,3.1496205110670417e-07,9.973156556952745e-05,51.5718879699707,330.84954833984375,0.30531045794487,8.107724715955555e-05,-0.13516943156719208,-0.1598815619945526,1724766500.7178712
1724766500.763314,4.7,-0.004196691513061346,1724766500761319800,1724766500761319800,-1.0,0.0,1.0,2.1697042029700242e-07,-3.1449042126041604e-07,-9.286534623242915e-05,51.5718879699707,330.84954833984375,0.3053077161312103,8.107724715955555e-05,-0.13516943156719208,-0.1598815619945526,1724766500.7613199
1724766500.8111184,4.75,-0.002001047134399414,1724766500815108600,1724766500814113900,-1.0,0.0,1.0,2.2122573284377722e-07,-2.4194469006033614e-07,-9.140650945482776e-05,51.5718879699707,330.84954833984375,0.3053130507469177,8.107724715955555e-05,-0.13516943156719208,-0.1598815619945526,1724766500.8141139
1724766500.8804595,4.800000000000001,-0.021342229843138938,1724766500879462000,1724766500878464900,-1.0,0.0,1.0,8.688645891652413e-08,-6.74361047003913e-08,-3.8930556911509484e-05,51.5718879699707,330.84954833984375,0.30532392859458923,8.107724715955555e-05,-0.13516943156719208,-0.1598815619945526,1724766500.8784652
1724766500.9251044,4.8500000000000005,-0.0159870624542231,1724766500922109900,1724766500921112000,-1.0,0.0,1.0,-6.629712174799351e-07,7.095787282196397e-07,0.0002836621424648911,51.5718879699707,330.84954833984375,0.305330753326416,8.107724715955555e-05,-0.13516943156719208,-0.1598815619945526,1724766500.921112
1724766500.972609,4.9,-0.013491725921630504,1724766500977119300,1724766500973604500,-1.0,0.0,1.0,4.930089971821872e-07,-5.844673864885408e-07,-0.00021007131726946682,51.5718879699707,330.84954833984375,0.3053217828273773,8.107724715955555e-05,-0.13516943156719208,-0.1598815619945526,1724766500.9736047
1724766501.0182762,4.95,-0.009158897399902166,1724766501018276100,1724766501016932300,-1.0,0.0,1.0,3.5324354996646434e-08,7.842244187372671e-09,-1.1471831385279074e-05,51.5718879699707,330.84954833984375,0.3053310513496399,8.107724715955555e-05,-0.13516943156719208,-0.1598815619945526,1724766501.0169325
1724766501.0641463,5.0,-0.005028963088989258,1724766501050117000,1724766501059159700,-1.0,0.0,1.0,4.4626889916798973e-07,-5.20869662068435e-07,-0.00018938329594675452,51.5718879699707,330.84954833984375,0.3053256869316101,8.107724715955555e-05,-0.13516943156719208,-0.1598815619945526,1724766501.05916
1724766501.112389,5.050000000000001,-0.0032717704772942113,1724766501103107900,1724766501111392800,-1.0,0.0,1.0,5.633153250528267e-07,-6.134649765954236e-07,-0.00023436419724021107,51.5718879699707,330.84954833984375,0.3053269386291504,8.107724715955555e-05,-0.13516943156719208,-0.1598815619945526,1724766501.111393
1724766501.1801572,5.1000000000000005,-0.021039867401122514,1724766501179160000,1724766501184146100,-1.0,0.0,1.0,-2.789941788705619e-07,2.961593850159261e-07,0.00011590953363338485,51.5718879699707,330.84954833984375,0.305326908826828,8.107724715955555e-05,-0.13516943156719208,-0.1598815619945526,1724766501.1841462
1724766501.224518,5.15,-0.015400743484496715,1724766501222523300,1724766501228275500,-1.0,0.0,1.0,-8.799693773653416e-07,1.0147615512323682e-06,0.0003751269250642508,51.5718879699707,330.84954833984375,0.3053346872329712,8.107724715955555e-05,-0.13516943156719208,-0.1598815619945526,1724766501.2282755
1724766501.2723641,5.2,-0.013246822357177557,1724766501264658900,1724766501269372500,-1.0,0.0,1.0,2.38146080633328e-09,2.2070386407335718e-08,5.0349913180980366e-06,51.5718879699707,330.84954833984375,0.3053346872329712,8.107724715955555e-05,-0.13516943156719208,-0.1598815619945526,1724766501.2693725
1724766501.3131084,5.25,-0.003991127014160156,1724766501309118800,1724766501312112300,-1.0,0.0,1.0,-6.460086865445192e-07,7.439771820827445e-07,0.0002767248370219022,51.5718879699707,330.84954833984375,0.3053373694419861,8.107724715955555e-05,-0.13516943156719208,-0.1598815619945526,1724766501.3121126
1724766501.3791258,5.300000000000001,-0.020008516311644797,1724766501373333000,1724766501374330200,-1.0,0.0,1.0,-8.444364425486128e-07,9.881514415610582e-07,0.0003542905324138701,51.5718879699707,330.84954833984375,0.30533552169799805,8.107724715955555e-05,-0.13516943156719208,-0.1598815619945526,1724766501.3743303
1724766501.4286156,5.3500000000000005,-0.01949825286865181,1724766501427615300,1724766501427615300,-1.0,0.0,1.0,3.2125447546604846e-07,-3.865753512855008e-07,-0.00013610138557851315,51.5718879699707,330.84954833984375,0.30532824993133545,8.107724715955555e-05,-0.13516943156719208,-0.1598815619945526,1724766501.4276154
1724766501.4816275,5.4,-0.022510147094726207,1724766501480629100,1724766501480629100,-1.0,0.0,1.0,5.660600095325208e-07,-6.647837835771497e-07,-0.0002393942413618788,51.5718879699707,330.84954833984375,0.305328905582428,8.107724715955555e-05,-0.13516943156719208,-0.1598815619945526,1724766501.4806292
1724766501.5261133,5.45,-0.016995954513549627,1724766501524607000,1724766501523609900,-1.0,0.0,1.0,-6.176276912128742e-08,6.676189201471061e-08,2.6719728339230642e-05,51.5718879699707,330.84954833984375,0.305328905582428,8.107724715955555e-05,-0.13516943156719208,-0.1598815619945526,1724766501.5236099
1724766501.574098,5.5,-0.014980792999267578,1724766501578373000,1724766501577375500,-1.0,0.0,1.0,1.0071496490127174e-06,-1.1889143252119538e-06,-0.00042672117706388235,51.5718879699707,330.84954833984375,0.30532222986221313,8.107724715955555e-05,-0.13516943156719208,-0.1598815619945526,1724766501.5773757
1724766501.6221168,5.550000000000001,-0.012999486923217063,1724766501621119100,1724766501620122500,-1.0,0.0,1.0,-5.127348003952648e-07,6.411730737454491e-07,0.00022361883020494133,51.5718879699707,330.84954833984375,0.3053424060344696,8.107724715955555e-05,-0.13516943156719208,-0.1598815619945526,1724766501.6201227
1724766501.7016299,5.6000000000000005,-0.04251255989074654,1724766501704621900,1724766501703624600,-1.0,0.0,1.0,-7.856897354940884e-07,9.069891007129627e-07,0.0003354480431880802,51.5718879699707,330.84954833984375,0.30534279346466064,8.107724715955555e-05,-0.13516943156719208,-0.1598815619945526,1724766501.7036247
1724766501.7411873,5.65,-0.03207001686096156,1724766501738194000,1724766501745176000,-1.0,0.0,1.0,9.713321560411714e-07,-1.1881317050210782e-06,-0.0004113976319786161,51.5718879699707,330.84954833984375,0.30532971024513245,8.107724715955555e-05,-0.13516943156719208,-0.1598815619945526,1724766501.745176
1724766501.7641497,5.7,-0.005032348632812322,1724766501759163400,1724766501766649500,-1.0,0.0,1.0,0.0,0.0,0.0,51.5718879699707,330.84954833984375,0.30532971024513245,8.107724715955555e-05,-0.13516943156719208,-0.1598815619945526,1724766501.7666497
1724766501.8140934,5.75,-0.004976034164428711,1724766501801501200,1724766501809106100,-1.0,0.0,1.0,3.928907972294837e-07,-4.2094504237866204e-07,-0.00016716538812033832,51.5718879699707,330.84954833984375,0.3053228557109833,8.107724715955555e-05,-0.13516943156719208,-0.1598815619945526,1724766501.8091063
1724766501.8631196,5.800000000000001,-0.004002285003661399,1724766501856149300,1724766501862122900,-1.0,0.0,1.0,7.031819677649764e-07,-7.98981886873662e-07,-0.0002980977005790919,51.5718879699707,330.84954833984375,0.3053140938282013,8.107724715955555e-05,-0.13516943156719208,-0.1598815619945526,1724766501.862123
1724766501.953652,5.8500000000000005,-0.04453458786010689,1724766501957621500,1724766501948154300,-1.0,0.0,1.0,1.694999696155719e-07,-1.7896394410854555e-07,-6.997473974479362e-05,51.5718879699707,330.84954833984375,0.30532094836235046,8.107724715955555e-05,-0.13516943156719208,-0.1598815619945526,1724766501.9481544
1724766501.9822853,5.9,-0.023167943954467418,1724766501978295200,1724766501979293400,-1.0,0.0,1.0,1.694999696155719e-07,-1.7896394410854555e-07,-6.997473974479362e-05,51.5718879699707,330.84954833984375,0.30532094836235046,8.107724715955555e-05,-0.13516943156719208,-0.1598815619945526,1724766501.9792936
1724766502.031153,5.95,-0.022035646438598455,1724766502032150700,1724766502032150700,-1.0,0.0,1.0,6.573406494680967e-07,-7.483246804440569e-07,-0.0002767700352706015,51.5718879699707,330.84954833984375,0.305315226316452,8.107724715955555e-05,-0.13516943156719208,-0.1598815619945526,1724766502.032151
1724766502.0904768,6.0,-0.03135943412780762,1724766502076113400,1724766502085130700,-1.0,0.0,1.0,-7.309738236926933e-08,1.1219097473258444e-07,2.8860449674539268e-05,51.5718879699707,330.84954833984375,0.3053268790245056,8.107724715955555e-05,-0.13516943156719208,-0.1598815619945526,1724766502.085131
1724766502.113782,6.050000000000001,-0.0046646118164055395,1724766502108795100,1724766502117628000,-1.0,0.0,1.0,1.7158033926989447e-07,-1.7184311218443327e-07,-7.087588892318308e-05,51.5718879699707,330.84954833984375,0.3053256571292877,8.107724715955555e-05,-0.13516943156719208,-0.1598815619945526,1724766502.117628
1724766502.1671154,6.1000000000000005,-0.007998132705687944,1724766502162602800,1724766502170105400,-1.0,0.0,1.0,0.0,0.0,0.0,51.5718879699707,330.84954833984375,0.3053291141986847,8.107724715955555e-05,-0.13516943156719208,-0.1598815619945526,1724766502.1701055
1724766502.2135963,6.15,-0.0044790267944332385,1724766502216101200,1724766502212598600,-1.0,0.0,1.0,-8.727737395020085e-07,1.0027300731962896e-06,0.00037513175630010664,51.5718879699707,330.84954833984375,0.3053341805934906,8.107724715955555e-05,-0.13516943156719208,-0.1598815619945526,1724766502.2125986
1724766502.2591572,6.2,-3.9863586425603614e-05,1724766502259157200,1724766502254606800,-1.0,0.0,1.0,1.52363938354938e-07,-1.9144823681926937e-07,-6.860154826426879e-05,51.5718879699707,330.84954833984375,0.3053324520587921,8.107724715955555e-05,-0.13516943156719208,-0.1598815619945526,1724766502.254607
1724766502.3336678,6.25,-0.024550437927246094,1724766502334665100,1724766502329679000,-1.0,0.0,1.0,2.0464679550968867e-07,-2.4490634586982196e-07,-8.454091585008428e-05,51.5718879699707,330.84954833984375,0.3053404986858368,8.107724715955555e-05,-0.13516943156719208,-0.1598815619945526,1724766502.3296793
1724766502.3876255,6.300000000000001,-0.0285081386566155,1724766502389621900,1724766502383118400,-1.0,0.0,1.0,-1.840427756860663e-07,2.021833296339537e-07,7.611612090840936e-05,51.5718879699707,330.84954833984375,0.3053397238254547,8.107724715955555e-05,-0.13516943156719208,-0.1598815619945526,1724766502.3831184
1724766502.4290907,6.3500000000000005,-0.019973421096801225,1724766502432082000,1724766502425121200,-1.0,0.0,1.0,5.7357262051027647e-08,-7.278846680947026e-08,-2.642887739057187e-05,51.5718879699707,330.84954833984375,0.30533045530319214,8.107724715955555e-05,-0.13516943156719208,-0.1598815619945526,1724766502.4251213
1724766502.4747767,6.4,-0.01565942764282191,1724766502486317500,1724766502479337000,-1.0,0.0,1.0,5.64499885058467e-07,-6.254110189729545e-07,-0.00024188363749999553,51.5718879699707,330.84954833984375,0.30533382296562195,8.107724715955555e-05,-0.13516943156719208,-0.1598815619945526,1724766502.479337
1724766502.5201623,6.45,-0.011045026779174627,1724766502530508800,1724766502522156300,-1.0,0.0,1.0,-4.665579638185591e-07,5.056648433310329e-07,0.00020005526312161237,51.5718879699707,330.84954833984375,0.3053309917449951,8.107724715955555e-05,-0.13516943156719208,-0.1598815619945526,1724766502.5221565
1724766502.5666327,6.5,-0.007515430450439453,1724766502563135000,1724766502564131800,-1.0,0.0,1.0,-2.250295949579595e-08,9.388895882977977e-09,1.1419369911891408e-05,51.5718879699707,330.84954833984375,0.3053309917449951,8.107724715955555e-05,-0.13516943156719208,-0.1598815619945526,1724766502.564132
1724766502.6162388,6.550000000000001,-0.007121515274047141,1724766502618745300,1724766502617744300,-1.0,0.0,1.0,-1.4299052963906433e-06,1.672071107350348e-06,0.0006072812830097973,51.5718879699707,330.84954833984375,0.30534034967422485,8.107724715955555e-05,-0.13516943156719208,-0.1598815619945526,1724766502.6177444
1724766502.6679626,6.6000000000000005,-0.008845233917235795,1724766502663174900,1724766502663174900,-1.0,0.0,1.0,-1.4821091554040322e-07,2.191332555412373e-07,7.08615843905136e-05,51.5718879699707,330.84954833984375,0.3053416907787323,8.107724715955555e-05,-0.13516943156719208,-0.1598815619945526,1724766502.663175
1724766502.716822,6.65,-0.0077045917510982775,1724766502716318200,1724766502716821900,-1.0,0.0,1.0,5.737111905546044e-07,-6.957847631383629e-07,-0.00024051949731074274,51.5718879699707,330.84954833984375,0.30533865094184875,8.107724715955555e-05,-0.13516943156719208,-0.1598815619945526,1724766502.7168221
1724766502.7604122,6.7,-0.0012948989868162286,1724766502760412100,1724766502759416000,-1.0,0.0,1.0,-8.059404876803455e-07,9.13383416900615e-07,0.0003451936936471611,51.5718879699707,330.84954833984375,0.30534687638282776,8.107724715955555e-05,-0.13516943156719208,-0.1598815619945526,1724766502.759416
1724766502.8303354,6.75,-0.021218061447143555,1724766502837483300,1724766502834323700,-1.0,0.0,1.0,-5.618506975224591e-07,6.722687544424844e-07,0.0002333025331608951,51.5718879699707,330.84954833984375,0.3053421080112457,8.107724715955555e-05,-0.13516943156719208,-0.1598815619945526,1724766502.834324
1724766502.8781161,6.800000000000001,-0.01899881362914968,1724766502879110400,1724766502877117300,-1.0,0.0,1.0,4.7149490001174854e-07,-5.79681056933623e-07,-0.00020177525584585965,51.5718879699707,330.84954833984375,0.30533161759376526,8.107724715955555e-05,-0.13516943156719208,-0.1598815619945526,1724766502.8771174
1724766502.9235878,6.8500000000000005,-0.01447048187255806,1724766502923587800,1724766502919598500,-1.0,0.0,1.0,-1.0427505685584038e-06,1.2181958481960464e-06,0.00044085943954996765,51.5718879699707,330.84954833984375,0.3053417205810547,8.107724715955555e-05,-0.13516943156719208,-0.1598815619945526,1724766502.9195988
1724766502.970629,6.9,-0.011511659622192028,1724766502978185300,1724766502972623400,-1.0,0.0,1.0,3.0975181175563193e-07,-4.0798795453156345e-07,-0.00013348374341148883,51.5718879699707,330.84954833984375,0.3053264319896698,8.107724715955555e-05,-0.13516943156719208,-0.1598815619945526,1724766502.9726233
1724766503.0165687,6.95,-0.0074513435363767755,1724766503020601300,1724766503016063600,0.0,0.0235294122248888,0.0078431377187371,3.875871641412232e-07,-4.3748028133450134e-07,-0.0001609334722161293,51.5718879699707,330.84954833984375,0.3053264319896698,8.107724715955555e-05,-0.13516943156719208,-0.1598815619945526,1724766503.0160637
1724766503.0616286,7.0,-0.002511262893676758,1724766503062626200,1724766503058636600,0.0,0.0235294122248888,0.0156862754374742,1.0819466069733608e-06,-1.2616096682904754e-06,-0.0004555774212349206,51.5718879699707,330.84954833984375,0.3053142726421356,8.107724715955555e-05,-0.13516943156719208,-0.1598815619945526,1724766503.0586367
1724766503.10984,7.050000000000001,-0.0007225990295403051,1724766503116426600,1724766503111835400,0.0,0.0235294122248888,0.0823529437184333,0.038859669119119644,2.4122189188346965e-06,-0.00011204919428564608,51.572998046875,330.84954833984375,0.30533161759376526,0.00015208440891001374,-0.13687016069889069,-0.1597900241613388,1724766503.1118355
1724766503.1784956,7.1000000000000005,-0.019378328323363725,1724766503180492200,1724766503177499200,0.0,0.0235294122248888,0.1882352977991104,0.058031871914863586,9.615712042432278e-05,-2.1620111510856077e-05,51.57639694213867,330.84954833984375,0.305361270904541,0.00042209637467749417,-0.13958173990249634,-0.159759521484375,1724766503.1774993
1724766503.2403626,7.15,-0.031245326995849254,1724766503244352200,1724766503242356400,0.0,0.0235294122248888,0.4039215743541717,0.05980690196156502,9.891123772831634e-05,0.0005595952970907092,51.57865905761719,330.84954833984375,0.30537161231040955,0.000553019461221993,-0.14001886546611786,-0.1597595065832138,1724766503.2423565
1724766503.2645962,7.2,-0.005478906631469549,1724766503266102800,1724766503263599100,0.0,0.0235294122248888,0.4392156898975372,0.04438989982008934,2.435725400573574e-05,0.00020501755352597684,51.579803466796875,330.84954833984375,0.30537325143814087,0.000553019461221993,-0.14001886546611786,-0.1597595065832138,1724766503.2635992
1724766503.3162832,7.25,-0.0071659088134765625,1724766503319626700,1724766503307410200,0.0,0.0235294122248888,0.5411764979362488,0.32099759578704834,0.001152898883447051,0.0007868682150729001,51.59286117553711,330.84967041015625,0.30550140142440796,-0.010681151412427425,-0.15215611457824707,-0.1595764011144638,1724766503.3074102
1724766503.3646011,7.300000000000001,-0.005483818054198508,1724766503362605600,1724766503361608800,0.0,0.0235294122248888,0.6784313917160034,0.3773362934589386,0.001623107003979385,0.0006535806460306048,51.602054595947266,330.8497619628906,0.3055684566497803,-0.016387945041060448,-0.15964199602603912,-0.159393310546875,1724766503.3616087
1724766503.413576,7.3500000000000005,-0.004458570480346147,1724766503416081200,1724766503414573500,0.0,0.0235294122248888,0.6901960968971252,0.6894153356552124,0.0010227770544588566,0.0020881087984889746,51.641014099121094,330.84967041015625,0.30583205819129944,-0.00918578915297985,-0.18450388312339783,-0.1593627631664276,1724766503.4145737
1724766503.4746053,7.4,-0.015488004684447887,1724766503479196100,1724766503478198900,0.0,0.0235294122248888,0.7019608020782471,0.8354167938232422,0.0009010260691866279,0.0033062114380300045,51.67473602294922,330.84967041015625,0.3059876561164856,-0.0084228515625,-0.19796618819236755,-0.1593017429113388,1724766503.478199
1724766503.5301187,7.45,-0.021001386642455877,1724766503533112300,1724766503532114500,0.0,0.0235294122248888,0.7137255072593689,1.1941570043563843,0.0014284111093729734,0.004705133847892284,51.74655532836914,330.84967041015625,0.3062416911125183,-0.0079345703125,-0.22183087468147278,-0.1591491550207138,1724766503.5321145
1724766503.5906246,7.5,-0.031507253646850586,1724766503586609700,1724766503586101700,0.0,0.0235294122248888,0.7176470756530762,1.3671668767929077,0.0015986921498551965,0.005257543176412582,51.810081481933594,330.8496398925781,0.3063621520996094,-0.004150390625,-0.2347126007080078,-0.15899658203125,1724766503.5861018
1724766503.621126,7.550000000000001,-0.01200861930847097,1724766503618133500,1724766503618133500,0.0,0.0235294122248888,0.7176470756530762,1.5099170207977295,0.0017224218463525176,0.006541188806295395,51.84302520751953,330.849609375,0.3064204454421997,-0.0026245112530887127,-0.23971913754940033,-0.1589355170726776,1724766503.6181335
1724766503.6711159,7.6000000000000005,-0.01199855804443306,1724766503681667300,1724766503672113600,0.0,0.0235294122248888,0.729411780834198,1.8528274297714233,0.002177219372242689,0.008200484327971935,51.96636199951172,330.8495178222656,0.3065827488899231,0.004685492254793644,-0.2558588683605194,-0.1586913913488388,1724766503.6721137
1724766503.717212,7.65,-0.008094644546508434,1724766503724193500,1724766503715082400,0.0,0.0235294122248888,0.7372549176216125,2.049697160720825,0.0023422762751579285,0.009215478785336018,52.05659484863281,330.849609375,0.3066355884075165,0.010038960725069046,-0.2602848410606384,-0.1585693359375,1724766503.7150826
1724766503.7676873,7.7,-0.008570003509521307,1724766503777606700,1724766503768686800,0.0,0.0235294122248888,0.7411764860153198,2.2448737621307373,0.00252868072129786,0.010505978018045425,52.15843963623047,330.8497619628906,0.30665335059165955,0.01584528014063835,-0.2619582414627075,-0.158477783203125,1724766503.768687
1724766503.8181174,7.75,-0.009000062942504883,1724766503830149900,1724766503822106800,0.0,0.0235294122248888,0.7490196228027344,2.4354517459869385,0.002713339403271675,0.011022113263607025,52.26805114746094,330.8499450683594,0.30664920806884766,0.02185159921646118,-0.2614118158817291,-0.1584472507238388,1724766503.822107
1724766503.8946,7.800000000000001,-0.03548259735107351,1724766503905116800,1724766503897134200,0.0,0.0235294122248888,0.7529411911964417,2.7148361206054688,0.0029771632980555296,0.012504711747169495,52.4445686340332,330.8501892089844,0.30662691593170166,0.03139001876115799,-0.25860461592674255,-0.1583862155675888,1724766503.8971343
1724766503.9281242,7.8500000000000005,-0.01900687217712349,1724766503936610300,1724766503929121000,0.0,0.0235294122248888,0.7568627595901489,2.9016060829162598,0.0031463352497667074,0.013388412073254585,52.573020935058594,330.850341796875,0.30660581588745117,0.03826267272233963,-0.25631648302078247,-0.1583862155675888,1724766503.929121
1724766504.0081723,7.9,-0.04905495643615687,1724766504010166900,1724766504003598600,0.0,0.0235294122248888,0.7568627595901489,3.181011915206909,0.003387454431504011,0.014348381198942661,52.78129196166992,330.8505859375,0.30657389760017395,0.049303144216537476,-0.25308582186698914,-0.1583556979894638,1724766504.0035987
1724766504.0416024,7.95,-0.032485055923461736,1724766504042600100,1724766504036279200,0.0,0.0235294122248888,0.7607843279838562,3.3671875,0.0035391985438764095,0.014616367407143116,52.931121826171875,330.8507385253906,0.30655309557914734,0.05717824026942253,-0.25128263235092163,-0.1582946628332138,1724766504.0362794
1724766504.076583,8.0,-0.017465591430664062,1724766504084605100,1724766504078620300,0.0,0.0235294122248888,0.7607843279838562,3.4557459354400635,0.003611034946516156,0.015292195603251457,53.00545883178711,330.8507995605469,0.306549996137619,0.06106555461883545,-0.25051766633987427,-0.1582946628332138,1724766504.0786204
1724766504.11961,8.05,-0.010492753982543235,1724766504128122300,1724766504121603300,0.0,0.0235294122248888,0.7647058963775635,3.6557884216308594,0.003765434492379427,0.01633935235440731,53.18068313598633,330.85113525390625,0.30651411414146423,0.07018601894378662,-0.2491447925567627,-0.1582641452550888,1724766504.1216035
1724766504.1776218,8.1,-0.018504524230957387,1724766504181612700,1724766504174087900,0.0,0.0235294122248888,0.7764706015586853,3.8384108543395996,0.0038988455198705196,0.01711459457874298,53.34918975830078,330.8514709472656,0.30651506781578064,0.07890453189611435,-0.2482227236032486,-0.1582031100988388,1724766504.174088
1724766504.228149,8.15,-0.01903162002563441,1724766504234131100,1724766504227150300,0.0,0.0235294122248888,0.772549033164978,4.128664016723633,0.0040925792418420315,0.017851615324616432,53.63242721557617,330.8520202636719,0.3064993917942047,0.09347604215145111,-0.2473689466714859,-0.15811152756214142,1724766504.2271504
1724766504.2650816,8.200000000000001,-0.005964326858519442,1724766504276278800,1724766504269783900,0.0,0.0235294122248888,0.7686274647712708,4.225099563598633,0.004153128247708082,0.01819850504398346,53.73102951049805,330.85223388671875,0.3064975142478943,0.09852824360132217,-0.24725283682346344,-0.1580810546875,1724766504.269784
1724766504.316088,8.25,-0.006970643997192383,1724766504318339900,1724766504312099000,0.0,0.0235294122248888,0.7607843279838562,4.413938522338867,0.0042688301764428616,0.019548112526535988,53.93193817138672,330.8526611328125,0.30649930238723755,0.10878339409828186,-0.247129887342453,-0.1580200046300888,1724766504.3120992
1724766504.363086,8.3,-0.0039686679840080785,1724766504371107300,1724766504364081800,0.0,0.0235294122248888,0.7490196228027344,4.69351053237915,0.00442196661606431,0.019983207806944847,54.25041198730469,330.85345458984375,0.30649587512016296,0.12491149455308914,-0.2468908280134201,-0.1579284369945526,1724766504.364082
1724766504.4111278,8.35,-0.002010488510132191,1724766504413121700,1724766504407135900,0.0,0.0235294122248888,0.7411764860153198,4.783121109008789,0.004470358602702618,0.020731324329972267,54.35819625854492,330.8537902832031,0.3064979016780853,0.13032987713813782,-0.24673373997211456,-0.15789794921875,1724766504.4071362
1724766504.4741027,8.4,-0.014985418319701793,1724766504477623900,1724766504471108800,0.0,0.0235294122248888,0.7411764860153198,5.060885906219482,0.004615003243088722,0.024613281711935997,54.71035385131836,330.85467529296875,0.30652421712875366,0.14789001643657684,-0.24588680267333984,-0.1577758491039276,1724766504.471109
1724766504.5196562,8.450000000000001,-0.010538864135741122,1724766504530156800,1724766504523646100,0.0,0.0235294122248888,0.7411764860153198,5.237338542938232,0.00468377536162734,0.023860713467001915,54.947532653808594,330.85540771484375,0.3066084384918213,0.15959995985031128,-0.24502618610858917,-0.1576843112707138,1724766504.5236464
1724766504.5715501,8.5,-0.01243281364440918,1724766504571550200,1724766504566087200,0.0,0.0235294122248888,0.7490196228027344,5.409107208251953,0.004746893420815468,0.023606913164258003,55.187957763671875,330.8562316894531,0.3066399395465851,0.17139263451099396,-0.24411094188690186,-0.1576232761144638,1724766504.5660872
1724766504.6332846,8.55,-0.024167251586913352,1724766504635277800,1724766504630291300,0.0,0.0235294122248888,0.7607843279838562,5.670965194702148,0.004829716868698597,0.023906290531158447,55.56945037841797,330.8575744628906,0.3066355288028717,0.18998844921588898,-0.2427653968334198,-0.1575011909008026,1724766504.6302912
1724766504.660306,8.6,-0.0011886596679691053,1724766504666288600,1724766504662302000,0.0,0.0235294122248888,0.7450980544090271,5.759998798370361,0.0048585436306893826,0.024134507402777672,55.702152252197266,330.85809326171875,0.3066273331642151,0.19641275703907013,-0.24237607419490814,-0.1574706882238388,1724766504.662302
1724766504.7281046,8.65,-0.01898727416992152,1724766504729102300,1724766504724292900,0.0,0.0235294122248888,0.6980392336845398,6.040652275085449,0.004928519483655691,0.02512088231742382,56.1375732421875,330.8597106933594,0.30659571290016174,0.21750903129577637,-0.24154962599277496,-0.1573486030101776,1724766504.724293
1724766504.7901053,8.700000000000001,-0.030988025665282137,1724766504792099900,1724766504788110000,0.0,0.0235294122248888,0.6431372761726379,6.292993545532227,0.004995603580027819,0.026102427393198013,56.5689582824707,330.86163330078125,0.30656152963638306,0.23814968764781952,-0.24038849771022797,-0.1572265625,1724766504.7881103
1724766504.8235886,8.75,-0.014471292495727539,1724766504823588600,1724766504820595900,0.0,0.0235294122248888,0.6078431606292725,6.37054967880249,0.005006120540201664,0.026375362649559975,56.7135009765625,330.86224365234375,0.30654823780059814,0.24510076642036438,-0.2396918088197708,-0.1571654975414276,1724766504.820596
1724766504.867392,8.8,-0.008274745941161399,1724766504876896900,1724766504872381800,0.0,0.0235294122248888,0.5764706134796143,6.517240524291992,0.0050515662878751755,0.026825180277228355,57.00503921508789,330.8636169433594,0.30651745200157166,0.2587573230266571,-0.23772472143173218,-0.1571044772863388,1724766504.8723817
1724766504.923119,8.85,-0.014001750946045277,1724766504929376600,1724766504925112800,0.0,0.0235294122248888,0.5372549295425415,6.73086404800415,0.005124072544276714,0.02721669338643551,57.48276138305664,330.8659973144531,0.3064546287059784,0.28068822622299194,-0.23282064497470856,-0.1569824069738388,1724766504.925113
1724766504.9735837,8.9,-0.014466381072997692,1724766504982131100,1724766504978142000,0.0,0.0235294122248888,0.4745098054409027,6.864598274230957,0.00517298886552453,0.027256863191723824,57.82270431518555,330.8677978515625,0.30640214681625366,0.2959619462490082,-0.228237584233284,-0.1569213718175888,1724766504.978142
1724766505.0211954,8.950000000000001,-0.01207809448242081,1724766505024187500,1724766505020199100,0.0,0.0235294122248888,0.3960784375667572,6.9755988121032715,0.0052170101553201675,0.027135223150253296,58.14146041870117,330.8695983886719,0.30634838342666626,0.310027539730072,-0.22335399687290192,-0.156890869140625,1724766505.0201993
1724766505.0684583,9.0,-0.009341001510620117,1724766505078096800,1724766505073443500,0.0,0.0235294122248888,0.3098039329051971,7.074665069580078,0.005274923983961344,0.026782630011439323,58.4860725402832,330.87158203125,0.30628231167793274,0.3248389661312103,-0.21719317138195038,-0.156890869140625,1724766505.0734437
1724766505.131403,9.05,-0.02228565216064382,1724766505130403700,1724766505127412400,0.0,0.0235294122248888,0.2588235437870025,7.1479949951171875,0.00533992750570178,0.026201022788882256,58.816986083984375,330.87371826171875,0.3062085807323456,0.338641494512558,-0.21019905805587769,-0.1568603217601776,1724766505.1274126
1724766505.1861706,9.1,-0.02705326080322301,1724766505194176100,1724766505190184100,0.0,0.0235294122248888,0.2313725501298904,7.227980613708496,0.005450832657516003,0.024948621168732643,59.31864929199219,330.8769836425781,0.306079238653183,0.3587237000465393,-0.19787739217281342,-0.1569213718175888,1724766505.1901844
1724766505.214141,9.15,-0.005023574829101207,1724766505215138800,1724766505211148700,0.0,0.0235294122248888,0.2235294133424759,7.248775959014893,0.005490763578563929,0.0244784913957119,59.48429489135742,330.87811279296875,0.30603447556495667,0.3651263117790222,-0.19356754422187805,-0.156951904296875,1724766505.211149
1724766505.2676299,9.200000000000001,-0.008512544631956942,1724766505268628900,1724766505264628600,0.0,0.0235294122248888,0.2078431397676468,7.28532600402832,0.005561671685427427,0.023512808606028557,59.81999969482422,330.8803405761719,0.30594491958618164,0.37788647413253784,-0.18499566614627838,-0.1570129245519638,1724766505.2646286
1724766505.3368096,9.25,-0.027692317962646484,1724766505342097700,1724766505339106500,0.0,0.0235294122248888,0.1882352977991104,7.33118200302124,0.005653342232108116,0.02212049439549446,60.3415412902832,330.8840026855469,0.305819034576416,0.3971809148788452,-0.1729472130537033,-0.1571044772863388,1724766505.3391066
1724766505.3725889,9.3,-0.013471555709838157,1724766505374581300,1724766505371588900,0.0,0.0235294122248888,0.1764705926179886,7.354998588562012,0.00570020591840148,0.021391864866018295,60.663230895996094,330.886474609375,0.3057542145252228,0.40882545709609985,-0.16671808063983917,-0.1571654975414276,1724766505.371589
1724766505.427238,9.35,-0.01812067031860387,1724766505427238000,1724766505426153300,0.0,-0.0235294122248888,0.1764705926179886,7.3771233558654785,0.0010846714721992612,0.020727477967739105,61.016204833984375,330.8891296386719,0.3056943416595459,0.41965624690055847,-0.1609807163476944,-0.15786738693714142,1724766505.4261534
1724766505.4592528,9.4,-0.00013551712036097285,1724766505458254000,1724766505458254000,0.0,-0.0235294122248888,0.1764705926179886,7.386744499206543,-0.0019011091208085418,0.020455678924918175,61.18901062011719,330.8903503417969,0.30566930770874023,0.4219055771827698,-0.1585969775915146,-0.15887451171875,1724766505.458254
1724766505.5101314,9.450000000000001,-0.0010140419006336998,1724766505511126400,1724766505511126400,0.0,-0.0235294122248888,0.1764705926179886,7.413150787353516,-0.0057852850295603275,0.019813358783721924,61.69869613647461,330.89385986328125,0.3056108355522156,0.42018139362335205,-0.15298256278038025,-0.1611327975988388,1724766505.5111265
1724766505.5711005,9.5,-0.011983156204223633,1724766505575087200,1724766505575087200,0.0,-0.0235294122248888,0.1725490242242813,7.430018901824951,-0.006462248042225838,0.019521379843354225,62.03912353515625,330.8961181640625,0.305583655834198,0.41466817259788513,-0.15038709342479706,-0.16174311935901642,1724766505.5750873
