frame_timestamp_original,frame_timestamp_new,residual,time_hardwaremanager,time_carla,brake,steer,throttle,ego_vx,ego_vy,ego_vz,ego_x,ego_y,ego_z,ego_yaw,ego_pitch,ego_roll,time_carla_s
1724764992.253558,0.0,0.0,1724764992249568700,1724764992256552700,-1.0,0.0,1.0,-8.964731932792347e-06,2.3511694962508045e-05,-0.0028502685017883778,51.57194137573242,330.8497619628906,0.3056570887565613,3.1147850677371025e-05,-0.13016290962696075,-0.1614684760570526,1724764992.2565527
1724764992.3095222,0.05,-0.005964231491088864,1724764992314509400,1724764992310520500,-1.0,0.0,1.0,-1.7619448044570163e-05,3.207105692126788e-05,-0.0018948112847283483,51.57194137573242,330.8497619628906,0.30549654364585876,3.025095065822825e-05,-0.13122841715812683,-0.1610107272863388,1724764992.3105206
1724764992.380812,0.1,-0.027254009246826166,1724764992388437400,1724764992382807100,-1.0,0.0,1.0,-1.864702244347427e-05,-1.1833515600301325e-05,-0.0009139518369920552,51.57194137573242,330.8497619628906,0.30535998940467834,2.9282717150636017e-05,-0.13278570771217346,-0.1604919284582138,1724764992.3828073
1724764992.4086645,0.15000000000000002,-0.005106544494628884,1724764992409768300,1724764992404675300,-1.0,0.0,1.0,-1.864702244347427e-05,-1.1833515600301325e-05,-0.0009139518369920552,51.57194137573242,330.8497619628906,0.30535998940467834,2.9282717150636017e-05,-0.13278570771217346,-0.1604919284582138,1724764992.4046755
1724764992.4609609,0.2,-0.007402944564819325,1724764992462957000,1724764992456513700,-1.0,0.0,1.0,-1.5539888408966362e-05,-8.745157174416818e-06,-0.0006963389459997416,51.57194137573242,330.8497619628906,0.3053153455257416,2.8769834898412228e-05,-0.13363946974277496,-0.1602477878332138,1724764992.456514
1724764992.5107157,0.25,-0.007157802581787109,1724764992516700200,1724764992509718900,-1.0,0.0,1.0,-1.0561026101640891e-05,-4.595385235006688e-06,-0.00023724857601337135,51.57194137573242,330.8497619628906,0.3053019940853119,2.8295411539147608e-05,-0.1345820426940918,-0.1600341647863388,1724764992.509719
1724764992.5606582,0.30000000000000004,-0.007100296020507768,1724764992570522200,1724764992562650700,-1.0,0.0,1.0,-7.818104677426163e-06,-2.208706746387179e-06,0.00015160102338995785,51.57194137573242,330.8497619628906,0.30529913306236267,2.810080513881985e-05,-0.13497819006443024,-0.1599426120519638,1724764992.5626507
1724764992.6146898,0.35000000000000003,-0.01113190650939938,1724764992622649700,1724764992615688700,-1.0,0.0,1.0,-2.35399724601848e-07,-3.875856009472045e-07,-4.7650537453591824e-05,51.57194137573242,330.8497619628906,0.30529242753982544,2.803290590236429e-05,-0.13513527810573578,-0.159912109375,1724764992.6156888
1724764992.6635282,0.4,-0.009970283508300759,1724764992664527800,1724764992658486600,-1.0,0.0,1.0,-1.3183847613618127e-06,4.3323106524439936e-07,0.0003946522774640471,51.57194137573242,330.8497619628906,0.30530381202697754,2.803290590236429e-05,-0.13513527810573578,-0.159912109375,1724764992.6584866
1724764992.7154927,0.45,-0.011934804916381825,1724764992719567100,1724764992711502800,-1.0,0.0,1.0,-3.260840628627193e-07,-8.136810834002972e-07,-1.1508423995110206e-05,51.57194137573242,330.8497619628906,0.3053208291530609,2.803290590236429e-05,-0.13513527810573578,-0.159912109375,1724764992.711503
1724764992.7671618,0.5,-0.013603925704956055,1724764992763171900,1724764992764167700,-1.0,0.0,1.0,-6.061124508960347e-07,-3.218569872842636e-07,0.00013268344628158957,51.57194137573242,330.8497619628906,0.30532515048980713,2.803290590236429e-05,-0.13513527810573578,-0.159912109375,1724764992.7641678
1724764992.816036,0.55,-0.012478065490722612,1724764992817033000,1724764992817033000,-1.0,0.0,1.0,-8.042750891945616e-07,2.3327561393671203e-07,0.00025490991538390517,51.57194137573242,330.8497619628906,0.30532902479171753,2.7827487429021858e-05,-0.13522407412528992,-0.1598205417394638,1724764992.817033
1724764992.8684864,0.6000000000000001,-0.014928483963012606,1724764992871627200,1724764992869627900,-1.0,0.0,1.0,5.379695267038187e-07,-1.0594056902846205e-06,-0.00028055356233380735,51.57194137573242,330.8497619628906,0.30531957745552063,2.7827487429021858e-05,-0.13522407412528992,-0.1598205417394638,1724764992.869628
1724764992.918368,0.65,-0.014810180664062478,1724764992926351400,1724764992922361400,-1.0,0.0,1.0,-1.306224703512271e-06,1.1809813713625772e-06,0.0005257119191810489,51.57194137573242,330.8497619628906,0.30532142519950867,2.7827487429021858e-05,-0.13522407412528992,-0.1598205417394638,1724764992.9223614
1724764992.970774,0.7000000000000001,-0.01721601486206048,1724764992980517900,1724764992974763100,-1.0,0.0,1.0,7.122456509023323e-07,-1.0361014801674173e-06,-0.0003205468237865716,51.57194137573242,330.8497619628906,0.30531319975852966,2.7827487429021858e-05,-0.13522407412528992,-0.1598205417394638,1724764992.9747632
1724764993.0195715,0.75,-0.016013622283935547,1724764993023625600,1724764993018477100,-1.0,0.0,1.0,0.0,0.0,0.0,51.57194137573242,330.8497619628906,0.30532336235046387,2.7827487429021858e-05,-0.13522407412528992,-0.1598205417394638,1724764993.0184772
1724764993.0683372,0.8,-0.014779281616210893,1724764993078331800,1724764993070351100,-1.0,0.0,1.0,-1.5010886045274674e-06,1.7369499119013199e-06,0.0006379466503858566,51.57194137573242,330.8497619628906,0.3053273558616638,2.7827487429021858e-05,-0.13522407412528992,-0.1598205417394638,1724764993.0703511
1724764993.1207051,0.8500000000000001,-0.017147207260131747,1724764993122701600,1724764993123699400,-1.0,0.0,1.0,2.9474983875843463e-07,-3.818430229785008e-07,-0.0001210100163007155,51.57194137573242,330.8497619628906,0.30531543493270874,2.7827487429021858e-05,-0.13522407412528992,-0.1598205417394638,1724764993.1236997
1724764993.1686144,0.9,-0.015056467056274392,1724764993166048600,1724764993166048600,-1.0,0.0,1.0,2.482344712007034e-07,-2.784202308703243e-07,-9.968790982384235e-05,51.57194137573242,330.8497619628906,0.3053126037120819,2.7827487429021858e-05,-0.13522407412528992,-0.1598205417394638,1724764993.1660485
1724764993.2210097,0.9500000000000001,-0.017451810836791926,1724764993221009700,1724764993220010900,-1.0,0.0,1.0,5.243754230832565e-07,-6.43731596028374e-07,-0.0002141274162568152,51.57194137573242,330.8497619628906,0.3053101599216461,2.7827487429021858e-05,-0.13522407412528992,-0.1598205417394638,1724764993.2200112
1724764993.2695365,1.0,-0.015978574752807617,1724764993274525800,1724764993273527800,-1.0,0.0,1.0,1.4960747307668498e-07,-1.7584200406872696e-07,-6.15445533185266e-05,51.57194137573242,330.8497619628906,0.3053182065486908,2.7827487429021858e-05,-0.13522407412528992,-0.1598205417394638,1724764993.2735279
1724764993.318513,1.05,-0.014954996109008745,1724764993317515800,1724764993316520000,-1.0,0.0,1.0,5.009054575566552e-07,-5.666487368216622e-07,-0.0002109713532263413,51.57194137573242,330.8497619628906,0.3053121566772461,2.7827487429021858e-05,-0.13522407412528992,-0.1598205417394638,1724764993.31652
1724764993.3710232,1.1,-0.01746525764465323,1724764993373017300,1724764993368683900,-1.0,0.0,1.0,1.027404323394876e-06,-1.2022038617942599e-06,-0.000433279579738155,51.57194137573242,330.8497619628906,0.3053089678287506,2.7827487429021858e-05,-0.13522407412528992,-0.1598205417394638,1724764993.3686838
1724764993.4207451,1.1500000000000001,-0.017187213897704945,1724764993426728500,1724764993421741700,-1.0,0.0,1.0,-6.816073323534511e-07,7.221412943181349e-07,0.0002918991376645863,51.57194137573242,330.8497619628906,0.3053114414215088,2.7827487429021858e-05,-0.13522407412528992,-0.1598205417394638,1724764993.421742
1724764993.4725785,1.2000000000000002,-0.019020605087280096,1724764993480067200,1724764993475571300,-1.0,0.0,1.0,4.082259863480431e-07,-4.808276798939914e-07,-0.00017335232405457646,51.57194137573242,330.8497619628906,0.30530643463134766,2.7827487429021858e-05,-0.13522407412528992,-0.1598205417394638,1724764993.4755714
1724764993.522542,1.25,-0.018984079360961914,1724764993532041200,1724764993527528300,-1.0,0.0,1.0,6.122669446995133e-07,-6.753259071956563e-07,-0.0002584216417744756,51.57194137573242,330.8497619628906,0.3053092956542969,2.7827487429021858e-05,-0.13522407412528992,-0.1598205417394638,1724764993.5275283
1724764993.5738492,1.3,-0.020291280746459917,1724764993575844300,1724764993569861100,-1.0,0.0,1.0,3.3122421427833615e-07,-3.9850345956438105e-07,-0.0001429806143278256,51.57194137573242,330.8497619628906,0.3053050637245178,2.7827487429021858e-05,-0.13522407412528992,-0.1598205417394638,1724764993.5698612
1724764993.6235464,1.35,-0.019988441467285067,1724764993631515100,1724764993622548900,-1.0,0.0,1.0,7.212582886495511e-08,-9.689093616316313e-08,-3.129670221824199e-05,51.57194137573242,330.8497619628906,0.30531108379364014,2.7827487429021858e-05,-0.13522407412528992,-0.1598205417394638,1724764993.622549
1724764993.6730053,1.4000000000000001,-0.019447422027587757,1724764993675000000,1724764993675999800,-1.0,0.0,1.0,-1.1504617987156962e-06,1.3556124258684576e-06,0.0004886547685600817,51.57194137573242,330.8497619628906,0.3053187131881714,2.7827487429021858e-05,-0.13522407412528992,-0.1598205417394638,1724764993.6759999
1724764993.7246835,1.4500000000000002,-0.02112560272216779,1724764993730525700,1724764993728674200,-1.0,0.0,1.0,3.6790078183912556e-07,-4.839135385736881e-07,-0.0001555964263388887,51.57194137573242,330.8497619628906,0.3053097426891327,2.7827487429021858e-05,-0.13522407412528992,-0.1598205417394638,1724764993.7286744
1724764993.775003,1.5,-0.021445035934448242,1724764993773008500,1724764993773008500,-1.0,0.0,1.0,-9.496465054326109e-07,1.116436351367156e-06,0.0004037990001961589,51.57194137573242,330.8497619628906,0.30532023310661316,2.7827487429021858e-05,-0.13522407412528992,-0.1598205417394638,1724764993.7730086
1724764993.8264947,1.55,-0.022936773300170854,1724764993826494700,1724764993825497300,-1.0,0.0,1.0,3.708028941673547e-07,-4.4197201987117296e-07,-0.0001558253134135157,51.57194137573242,330.8497619628906,0.3053053915500641,2.7827487429021858e-05,-0.13522407412528992,-0.1598205417394638,1724764993.8254974
1724764993.8754752,1.6,-0.021917247772216708,1724764993879687500,1724764993878468300,-1.0,0.0,1.0,6.498611924143916e-07,-7.906259611445421e-07,-0.0002711428387556225,51.57194137573242,330.8497619628906,0.3053012788295746,2.7827487429021858e-05,-0.13522407412528992,-0.1598205417394638,1724764993.8784685
1724764993.9254766,1.6500000000000001,-0.021918630599975453,1724764993922483100,1724764993920490300,-1.0,0.0,1.0,7.781305839671404e-07,-9.520517778582871e-07,-0.0003301214019302279,51.57194137573242,330.8497619628906,0.30529123544692993,2.7827487429021858e-05,-0.13522407412528992,-0.1598205417394638,1724764993.9204903
1724764993.9785762,1.7000000000000002,-0.025018262863159002,1724764993987113100,1724764993983587700,-1.0,0.0,1.0,5.41125359632133e-07,-6.370589176185604e-07,-0.0002305288944626227,51.57194137573242,330.8497619628906,0.30528584122657776,2.7827487429021858e-05,-0.13522407412528992,-0.1598205417394638,1724764993.9835877
1724764994.0286524,1.75,-0.02509450912475586,1724764994029793100,1724764994025659700,-1.0,0.0,1.0,-9.510675340607122e-07,1.1140272135889973e-06,0.00039846758591011167,51.57194137573242,330.8497619628906,0.3052961528301239,2.7827487429021858e-05,-0.13522407412528992,-0.1598205417394638,1724764994.0256598
1724764994.0546358,1.8,-0.0010778427124022993,1724764994062741600,1724764994056629900,-1.0,0.0,1.0,-2.7174999672752165e-07,3.591422057525051e-07,0.0001086800912162289,51.57194137573242,330.8497619628906,0.3052915930747986,2.7827487429021858e-05,-0.13522407412528992,-0.1598205417394638,1724764994.0566301
1724764994.1049151,1.85,-0.0013572216033934659,1724764994115552500,1724764994109430600,-1.0,0.0,1.0,-8.037773113755975e-07,9.774493037184584e-07,0.000347230612533167,51.57194137573242,330.8497619628906,0.3052994906902313,2.7827487429021858e-05,-0.13522407412528992,-0.1598205417394638,1724764994.1094306
1724764994.1556034,1.9000000000000001,-0.002045488357543812,1724764994160576800,1724764994152612800,-1.0,0.0,1.0,-7.288441565833637e-07,8.363474535144633e-07,0.0003110040270257741,51.57194137573242,330.8497619628906,0.3053078055381775,2.7827487429021858e-05,-0.13522407412528992,-0.1598205417394638,1724764994.152613
1724764994.2056825,1.9500000000000002,-0.002124595642089666,1724764994214512200,1724764994206678500,-1.0,0.0,1.0,3.9417682273779064e-07,-4.6622861304967955e-07,-0.00016990036237984896,51.57194137573242,330.8497619628906,0.3053097128868103,2.7827487429021858e-05,-0.13522407412528992,-0.1598205417394638,1724764994.2066786
1724764994.2574914,2.0,-0.003933429718017578,1724764994267071200,1724764994261087000,-1.0,0.0,1.0,0.0,0.0,0.0,51.57194137573242,330.8497619628906,0.3053097128868103,2.7827487429021858e-05,-0.13522407412528992,-0.1598205417394638,1724764994.2610872
1724764994.3060644,2.0500000000000003,-0.00250644683837864,1724764994300078200,1724764994302075600,-1.0,0.0,1.0,-9.589986120772664e-07,1.1282326113359886e-06,0.000402911682613194,51.57194137573242,330.8497619628906,0.30531904101371765,2.7827487429021858e-05,-0.13522407412528992,-0.1598205417394638,1724764994.3020759
1724764994.3565407,2.1,-0.002982759475707919,1724764994356540600,1724764994355543500,-1.0,0.0,1.0,-6.137697141639364e-07,7.20094874395727e-07,0.00025598195497877896,51.57194137573242,330.8497619628906,0.30532151460647583,2.7827487429021858e-05,-0.13522407412528992,-0.1598205417394638,1724764994.3555436
1724764994.407012,2.15,-0.0034540653228760654,1724764994410582600,1724764994410582600,-1.0,0.0,1.0,4.823198196390877e-07,-5.672761744790478e-07,-0.00020512570335995406,51.57194137573242,330.8497619628906,0.30531084537506104,2.7827487429021858e-05,-0.13522407412528992,-0.1598205417394638,1724764994.4105825
1724764994.4574945,2.2,-0.003936576843261541,1724764994453505000,1724764994453505000,-1.0,0.0,1.0,-8.837596965349803e-07,1.025220285555406e-06,0.00037947751116007566,51.57194137573242,330.8497619628906,0.30532076954841614,2.7827487429021858e-05,-0.13522407412528992,-0.1598205417394638,1724764994.453505
1724764994.5101197,2.25,-0.006561756134033203,1724764994506542500,1724764994505547100,-1.0,0.0,1.0,-9.22090919175389e-08,9.956189472859478e-08,4.247286051395349e-05,51.57194137573242,330.8497619628906,0.30531004071235657,2.7827487429021858e-05,-0.13522407412528992,-0.1598205417394638,1724764994.505547
1724764994.5589886,2.3000000000000003,-0.005430650711059304,1724764994561989600,1724764994559988300,-1.0,0.0,1.0,2.6146058651477233e-09,2.8151776465534795e-09,-2.3553950541099766e-06,51.57194137573242,330.8497619628906,0.3053158223628998,2.7827487429021858e-05,-0.13522407412528992,-0.1598205417394638,1724764994.5599883
1724764994.6070027,2.35,-0.003444814682006747,1724764994604011600,1724764994602017200,-1.0,0.0,1.0,2.6011883846877026e-07,-2.563448902037635e-07,-0.00011279035970801488,51.57194137573242,330.8497619628906,0.3053125739097595,2.7827487429021858e-05,-0.13522407412528992,-0.1598205417394638,1724764994.6020174
1724764994.658481,2.4000000000000004,-0.004922962188720348,1724764994657482800,1724764994656486000,-1.0,0.0,1.0,1.2169802232619986e-07,-1.327686334207101e-07,-5.033994966652244e-05,51.57194137573242,330.8497619628906,0.3053230345249176,2.7827487429021858e-05,-0.13522407412528992,-0.1598205417394638,1724764994.656486
1724764994.7096329,2.45,-0.006074953079223455,1724764994712622400,1724764994708497200,-1.0,0.0,1.0,-1.0097683116327971e-06,1.1950817224715138e-06,0.0004322058230172843,51.57194137573242,330.8497619628906,0.3053266704082489,2.7827487429021858e-05,-0.13522407412528992,-0.1598205417394638,1724764994.7084973
1724764994.76005,2.5,-0.006492137908935547,1724764994765040300,1724764994761050200,-1.0,0.0,1.0,1.0289093665960536e-07,-9.482682372663476e-08,-4.5247794332681224e-05,51.57194137573242,330.8497619628906,0.30532553791999817,2.7827487429021858e-05,-0.13522407412528992,-0.1598205417394638,1724764994.7610502
1724764994.8097553,2.5500000000000003,-0.006197404861449929,1724764994817737500,1724764994813747600,0.0,0.0235294122248888,0.0078431377187371,2.636525096022524e-07,-2.506911016553204e-07,-0.00011052091576857492,51.57194137573242,330.8497619628906,0.305328905582428,2.7827487429021858e-05,-0.13522407412528992,-0.1598205417394638,1724764994.813748
1724764994.858725,2.6,-0.005167150497436435,1724764994860029000,1724764994856221000,0.0,0.0235294122248888,0.027450980618596,5.33440470462665e-07,-6.677208261862688e-07,-0.00022988079581409693,51.57194137573242,330.8497619628906,0.3053224980831146,2.7827487429021858e-05,-0.13522407412528992,-0.1598205417394638,1724764994.856221
1724764994.9107792,2.6500000000000004,-0.00722131729125941,1724764994912773700,1724764994909782200,0.0,0.0235294122248888,0.2352941185235977,0.04287003353238106,-7.232136340462603e-06,-2.210917773481924e-05,51.57231140136719,330.8497619628906,0.30532529950141907,3.40917358698789e-05,-0.13583879172801971,-0.1597900092601776,1724764994.9097824
1724764994.9605103,2.7,-0.006952333450317205,1724764994966494400,1724764994963504000,0.0,0.0235294122248888,0.3137255012989044,0.040481727570295334,1.1767508112825453e-05,2.6202866138191894e-05,51.574954986572266,330.8497619628906,0.30534839630126953,0.00023074810451362282,-0.13878943026065826,-0.1597595065832138,1724764994.9635043
1724764995.012535,2.75,-0.008977174758911133,1724764995018520900,1724764995015527300,0.0,0.0235294122248888,0.4705882370471954,0.04294619709253311,1.663125294726342e-05,-0.00013990311708766967,51.57759475708008,330.8497619628906,0.30535778403282166,0.000396117742639035,-0.13999155163764954,-0.1597595065832138,1724764995.0155275
1724764995.0635443,2.8000000000000003,-0.00998635292053196,1724764995060552000,1724764995058482200,0.0,0.0235294122248888,0.615686297416687,0.10196170955896378,0.00010658922110451385,0.0004733223468065262,51.5793342590332,330.8497619628906,0.3053737282752991,0.0011661126045510173,-0.1409272849559784,-0.1597289741039276,1724764995.0584822
1724764995.114,2.85,-0.010442161560058505,1724764995114000100,1724764995111009000,0.0,0.0235294122248888,0.6666666865348816,0.4299907684326172,0.000490054429974407,0.00108194665517658,51.59486389160156,330.8498840332031,0.30554264783859253,-0.008880615234375,-0.15755879878997803,-0.159576416015625,1724764995.1110091
1724764995.162576,2.9000000000000004,-0.009018039703368785,1724764995166565300,1724764995163573500,0.0,0.0235294122248888,0.7568627595901489,0.7069308757781982,0.00036586751230061054,0.0022341287694871426,51.635169982910156,330.8497314453125,0.30585598945617676,0.005637709051370621,-0.18597237765789032,-0.1594543159008026,1724764995.1635735
1724764995.213123,2.95,-0.009565162658691229,1724764995218619200,1724764995218619200,0.0,0.0235294122248888,0.7647058963775635,0.8615652918815613,0.0016052749706432223,0.002943257335573435,51.677024841308594,330.8498229980469,0.306025892496109,-0.005096434149891138,-0.2037103772163391,-0.1592712104320526,1724764995.2186193
1724764995.2660427,3.0,-0.01248478889465332,1724764995261055900,1724764995261055900,0.0,0.0235294122248888,0.7647058963775635,1.0442010164260864,0.0014459259109571576,0.003912719897925854,51.70152282714844,330.8497619628906,0.30611854791641235,0.002175159053876996,-0.21243253350257874,-0.1590575873851776,1724764995.2610562
1724764995.3159866,3.0500000000000003,-0.012428712844848366,1724764995324496300,1724764995314988600,0.0,0.0235294122248888,0.7686274647712708,1.4254748821258545,0.001778039033524692,0.005886383354663849,51.79866409301758,330.8497619628906,0.3064112067222595,0.003129804041236639,-0.24056607484817505,-0.15884394943714142,1724764995.3149886
1724764995.3655155,3.1,-0.011957550048828036,1724764995366514300,1724764995366514300,0.0,0.0235294122248888,0.772549033164978,1.6768388748168945,0.00193786749150604,0.00779205746948719,51.87565231323242,330.84967041015625,0.3065376579761505,0.009731442667543888,-0.2518973648548126,-0.1586913764476776,1724764995.3665142
1724764995.4151242,3.1500000000000004,-0.011566257476806285,1724764995408677000,1724764995410134700,0.0,0.0235294122248888,0.772549033164978,1.8040530681610107,0.0020401051733642817,0.008311345241963863,51.91815185546875,330.84967041015625,0.30660122632980347,0.013770862482488155,-0.25741615891456604,-0.158599853515625,1724764995.4101348
1724764995.4830618,3.2,-0.0295038700103758,1724764995484058500,1724764995487372800,0.0,0.0235294122248888,0.7764706015586853,2.1580660343170166,0.002433564979583025,0.010305599309504032,52.0692024230957,330.8499450683594,0.306705117225647,0.021548252552747726,-0.2677365839481354,-0.1584472358226776,1724764995.4873729
1724764995.5165136,3.25,-0.012955665588378906,1724764995516513500,1724764995518507400,0.0,0.0235294122248888,0.7764706015586853,2.383890151977539,0.0026478783693164587,0.011263260617852211,52.1844367980957,330.85009765625,0.3067322373390198,0.028234099969267845,-0.27053695917129517,-0.1583862155675888,1724764995.5185077
1724764995.5645463,3.3000000000000003,-0.010988426208495827,1724764995569039600,1724764995561554000,0.0,0.0235294122248888,0.7803921699523926,2.4850597381591797,0.0027480595745146275,0.012056366540491581,52.24201965332031,330.8501892089844,0.30674219131469727,0.031464867293834686,-0.2707213759422302,-0.1583556979894638,1724764995.561554
1724764995.6169922,3.35,-0.013434314727783114,1724764995622508000,1724764995614997200,0.0,0.0235294122248888,0.7803921699523926,2.705641746520996,0.00295525835826993,0.012296134606003761,52.37704849243164,330.850341796875,0.30671045184135437,0.03891496732831001,-0.2691572606563568,-0.1582946628332138,1724764995.6149974
1724764995.668496,3.4000000000000004,-0.014937973022460582,1724764995675815900,1724764995666988800,0.0,0.0235294122248888,0.7843137383460999,3.0315423011779785,0.0032487644348293543,0.014042469672858715,52.59820556640625,330.8505859375,0.30665960907936096,0.05090074613690376,-0.2645536959171295,-0.1582641303539276,1724764995.6669888
1724764995.7286747,3.45,-0.025116729736327947,1724764995738688000,1724764995731707600,0.0,0.0235294122248888,0.7843137383460999,3.2496883869171143,0.0034334692172706127,0.015021370723843575,52.760623931884766,330.8507385253906,0.30662235617637634,0.05959296226501465,-0.26116591691970825,-0.1582336276769638,1724764995.7317078
1724764995.7810104,3.5,-0.027452468872070312,1724764995792530300,1724764995784999700,0.0,0.0235294122248888,0.7882353067398071,3.4724087715148926,0.003609750419855118,0.015178509056568146,52.93838119506836,330.8510437011719,0.3065785765647888,0.06902704387903214,-0.25803086161613464,-0.15820308029651642,1724764995.7849998
1724764995.8155391,3.5500000000000003,-0.011981201171874734,1724764995823581400,1724764995816534800,0.0,0.0235294122248888,0.7882353067398071,3.5691847801208496,0.00368872401304543,0.016721554100513458,53.01921081542969,330.85125732421875,0.30658453702926636,0.07329316437244415,-0.25686973333358765,-0.158203125,1724764995.816535
1724764995.875583,3.6,-0.022025012969970614,1724764995877577400,1724764995870596500,0.0,0.0235294122248888,0.7882353067398071,3.8035261631011963,0.0038580119144171476,0.016725538298487663,53.22488021850586,330.8515930175781,0.3065320551395416,0.08409260213375092,-0.25448599457740784,-0.1581420749425888,1724764995.8705966
1724764995.9255028,3.6500000000000004,-0.021944856643676403,1724764995928494100,1724764995924506100,0.0,0.0235294122248888,0.7843137383460999,4.117472171783447,0.004072824027389288,0.018154488876461983,53.52224349975586,330.8521423339844,0.30653414130210876,0.09956900030374527,-0.2522866725921631,-0.1580810546875,1724764995.9245062
1724764995.9745116,3.7,-0.020953702926635565,1724764995980653100,1724764995977503700,0.0,0.0235294122248888,0.7843137383460999,4.327286243438721,0.004205405246466398,0.01921953819692135,53.73611068725586,330.85272216796875,0.3065294623374939,0.11060232669115067,-0.2512553334236145,-0.1580200046300888,1724764995.9775038
1724764996.02756,3.75,-0.0240020751953125,1724764996033072000,1724764996031074800,0.0,0.0235294122248888,0.7843137383460999,4.543632984161377,0.004329067189246416,0.019682256504893303,53.96906280517578,330.8533020019531,0.3065119683742523,0.12253694981336594,-0.250394731760025,-0.1579284518957138,1724764996.031075
1724764996.0776095,3.8000000000000003,-0.024051618576049538,1724764996075614100,1724764996073620000,0.0,0.0235294122248888,0.7843137383460999,4.646213054656982,0.0043860794976353645,0.020465107634663582,54.0838623046875,330.85357666015625,0.3065139651298523,0.12838946282863617,-0.25008735060691833,-0.15789794921875,1724764996.07362
1724764996.1055453,3.85,-0.0019873619079588956,1724764996106542300,1724764996104548400,0.0,0.0235294122248888,0.7843137383460999,4.8575215339660645,0.0044912961311638355,0.021005401387810707,54.32932662963867,330.8542785644531,0.3065047264099121,0.14084558188915253,-0.2494794726371765,-0.1578368842601776,1724764996.1045485
1724764996.1611884,3.9000000000000004,-0.007630443572997692,1724764996161188300,1724764996158500900,0.0,0.0705882385373115,0.7843137383460999,5.0635600090026855,0.009315619245171547,0.025685638189315796,54.58019256591797,330.85504150390625,0.30653631687164307,0.1555267572402954,-0.24898770451545715,-0.1570739448070526,1724764996.158501
1724764996.2476735,3.95,-0.04411559104919416,1724764996246676200,1724764996244681300,0.0,0.0705882385373115,0.7843137383460999,5.377948760986328,0.014528268948197365,0.024292726069688797,54.98522186279297,330.85687255859375,0.30668750405311584,0.1925525665283203,-0.24835249781608582,-0.154632568359375,1724764996.2446814
1724764996.2745118,4.0,-0.020953893661499023,1724764996279007400,1724764996276506500,0.0,0.0705882385373115,0.7843137383460999,5.48320198059082,0.015051709488034248,0.024224793538451195,55.129119873046875,330.8576354980469,0.3067030608654022,0.2076340764760971,-0.24809977412223816,-0.154266357421875,1724764996.2765067
1724764996.3269846,4.05,-0.023426723480224787,1724764996330504700,1724764996331502900,0.0,0.0705882385373115,0.7843137383460999,5.678202152252197,0.01553095132112503,0.024409184232354164,55.41098403930664,330.8592224121094,0.3067033290863037,0.23858390748500824,-0.24746456742286682,-0.1539916843175888,1724764996.331503
1724764996.377002,4.1000000000000005,-0.02344408035278267,1724764996372015100,1724764996373012600,0.0,0.0705882385373115,0.7843137383460999,5.862288951873779,0.01565656252205372,0.024754568934440613,55.71849822998047,330.8610534667969,0.306671679019928,0.274237722158432,-0.2457296997308731,-0.1539916843175888,1724764996.3730125
1724764996.4316294,4.15,-0.028071498870849254,1724764996434621400,1724764996435619900,0.0,0.0235294122248888,0.7843137383460999,6.053733825683594,0.007141865324229002,0.024807626381516457,56.13977813720703,330.8634948730469,0.30657094717025757,0.3101365268230438,-0.2387697398662567,-0.156402587890625,1724764996.4356198
1724764996.458485,4.2,-0.004926967620849432,1724764996455980800,1724764996456978900,0.0,0.0235294122248888,0.7843137383460999,6.053733825683594,0.007141865324229002,0.024807626381516457,56.13977813720703,330.8634948730469,0.30657094717025757,0.3101365268230438,-0.2387697398662567,-0.156402587890625,1724764996.456979
1724764996.511598,4.25,-0.008040189743041992,1724764996508477700,1724764996510601500,0.0,0.0235294122248888,0.7843137383460999,6.385461330413818,0.005057967267930508,0.025676585733890533,56.63631820678711,330.8664855957031,0.3064846992492676,0.3412521779537201,-0.2332441210746765,-0.15789794921875,1724764996.5106015
1724764996.5625916,4.3,-0.00903363227844256,1724764996560595900,1724764996562591600,0.0,0.0235294122248888,0.7843137383460999,6.6386399269104,0.004750895779579878,0.02724999189376831,56.96536636352539,330.8684997558594,0.3065137267112732,0.3599298894405365,-0.23724660277366638,-0.1578674167394638,1724764996.5625916
1724764996.6135652,4.3500000000000005,-0.01000728607177681,1724764996613565300,1724764996615559200,0.0,0.0235294122248888,0.7843137383460999,6.869810104370117,0.004686401691287756,0.02899071015417576,57.313758850097656,330.8708190917969,0.3065665364265442,0.3789016902446747,-0.24319569766521454,-0.1575317084789276,1724764996.6155593
1724764996.667091,4.4,-0.013532972335815074,1724764996666094100,1724764996668597200,0.0,0.0235294122248888,0.7843137383460999,7.093470573425293,0.004706927575170994,0.03058016300201416,57.69120788574219,330.8734436035156,0.30660927295684814,0.39865198731422424,-0.24789486825466156,-0.1571349948644638,1724764996.6685975
1724764996.719985,4.45,-0.0164270877838133,1724764996718478600,1724764996720981800,0.0,0.0235294122248888,0.7843137383460999,7.303889274597168,0.004739720374345779,0.03182695060968399,58.0723876953125,330.8762512207031,0.3066296875476837,0.4179878830909729,-0.25021713972091675,-0.1567687839269638,1724764996.7209818
1724764996.7720962,4.5,-0.018538236618041992,1724764996779670900,1724764996773092900,0.0,0.0235294122248888,0.7843137383460999,7.506350040435791,0.004757107701152563,0.03279952332377434,58.45718765258789,330.8791809082031,0.30663225054740906,0.43709155917167664,-0.2506747543811798,-0.1564941257238388,1724764996.773093
1724764996.8240013,4.55,-0.020443391799926935,1724764996832510300,1724764996825996200,0.0,0.0235294122248888,0.7843137383460999,7.707616806030273,0.004752600099891424,0.0335904061794281,58.85457229614258,330.8822937011719,0.3066231310367584,0.45652127265930176,-0.24987562000751495,-0.1562805026769638,1724764996.8259964
1724764996.8765686,4.6000000000000005,-0.02301063537597603,1724764996885101800,1724764996878563000,0.0,0.0235294122248888,0.7843137383460999,7.909651279449463,0.004724920727312565,0.034279219806194305,59.26721954345703,330.8857421875,0.30660757422447205,0.47647926211357117,-0.24841396510601044,-0.1560973972082138,1724764996.8785632
1724764996.9317122,4.65,-0.028154230117797496,1724764996937698500,1724764996930715800,0.0,0.0235294122248888,0.7843137383460999,8.113365173339844,0.004674602299928665,0.03492266684770584,59.69674301147461,330.889404296875,0.3065895140171051,0.4970877468585968,-0.24667227268218994,-0.1559448093175888,1724764996.930716
1724764996.955599,4.7,-0.0020411491394041192,1724764996958592200,1724764996951610400,0.0,0.0235294122248888,0.7843137383460999,8.113365173339844,0.004674602299928665,0.03492266684770584,59.69674301147461,330.889404296875,0.3065895140171051,0.4970877468585968,-0.24667227268218994,-0.1559448093175888,1724764996.9516106
1724764997.00562,4.75,-0.002062082290649414,1724764997010871000,1724764997003625200,0.0,0.0235294122248888,0.7803921699523926,8.2993803024292,0.004611867479979992,0.03549961373209953,60.100555419921875,330.89306640625,0.3065734803676605,0.516350507736206,-0.2451149821281433,-0.15582275390625,1724764997.0036254
1724764997.061919,4.800000000000001,-0.008361053466796164,1724764997074782800,1724764997066905100,0.0,0.0235294122248888,0.7764706015586853,8.593575477600098,0.004479306284338236,0.03643382713198662,60.76323699951172,330.8993225097656,0.3065511882305145,0.5477786064147949,-0.24294981360435486,-0.1556396335363388,1724764997.0669053
1724764997.1274753,4.8500000000000005,-0.023917341232299272,1724764997138470100,1724764997130978800,0.0,0.0235294122248888,0.7764706015586853,8.787715911865234,0.004372755065560341,0.037068676203489304,61.21841812133789,330.90374755859375,0.30653855204582214,0.5692504644393921,-0.24173404276371002,-0.155487060546875,1724764997.1309788
1724764997.1535754,4.9,-1.7499923705699416e-05,1724764997159067300,1724764997152580700,0.0,0.0235294122248888,0.7764706015586853,8.878119468688965,0.004318874794989824,0.03736819326877594,61.43498992919922,330.9058837890625,0.30653318762779236,0.5794370770454407,-0.24120812118053436,-0.1554260551929474,1724764997.1525807
1724764997.2067795,4.95,-0.003221559524535955,1724764997212294500,1724764997204785600,0.0,0.0235294122248888,0.7764706015586853,9.081485748291016,0.004183733370155096,0.0380547009408474,61.93272399902344,330.9110412597656,0.3065222203731537,0.6027794480323792,-0.2401426136493683,-0.1552734375,1724764997.2047858
1724764997.2756886,5.0,-0.022130727767944336,1724764997286508300,1724764997279186100,0.0,0.0235294122248888,0.7764706015586853,9.372106552124023,0.003964084666222334,0.03906945884227753,62.66881561279297,330.9189758300781,0.30650943517684937,0.6371500492095947,-0.23889268934726715,-0.1550598293542862,1724764997.2791862
1724764997.3385973,5.050000000000001,-0.035039377212523704,1724764997350550800,1724764997342844000,0.0,0.0235294122248888,0.7764706015586853,9.55480670928955,0.0038098255172371864,0.03972334414720535,63.146453857421875,330.92431640625,0.3065027892589569,0.659368097782135,-0.23825064301490784,-0.154937744140625,1724764997.342844
1724764997.366403,5.1000000000000005,-0.01284518241882271,1724764997371585300,1724764997364408300,0.0,0.0235294122248888,0.7764706015586853,9.649024963378906,0.0037246050778776407,0.040063612163066864,63.397308349609375,330.92724609375,0.306499719619751,0.6710119843482971,-0.23794329166412354,-0.1548462063074112,1724764997.3644085
1724764997.4226415,5.15,-0.01908359527587855,1724764997435181500,1724764997427628600,0.0,-0.0235294122248888,0.7764706015586853,9.925178527832031,-0.001704645692370832,0.04109259694814682,64.150390625,330.93609619140625,0.30649176239967346,0.7036565542221069,-0.23718513548374176,-0.1553955227136612,1724764997.4276288
1724764997.473514,5.2,-0.019956159591674627,1724764997477504000,1724764997471519500,0.0,-0.0235294122248888,0.7764706015586853,10.01268482208252,-0.005027655977755785,0.041425880044698715,64.39460754394531,330.9389343261719,0.3064894676208496,0.7104118466377258,-0.2369665652513504,-0.156402587890625,1724764997.4715197
1724764997.525553,5.25,-0.021995067596435547,1724764997529792600,1724764997523558200,0.0,-0.0235294122248888,0.7764706015586853,10.190608024597168,-0.008861209265887737,0.04209635406732559,64.89949798583984,330.94482421875,0.30648502707481384,0.7186271548271179,-0.23653626441955566,-0.1583251655101776,1724764997.5235581
1724764997.5768356,5.300000000000001,-0.023277711868285422,1724764997582549200,1724764997575838000,0.0,-0.0235294122248888,0.7764706015586853,10.386794090270996,-0.0104602025821805,0.042828358709812164,65.4693832397461,330.95147705078125,0.30648037791252136,0.7214023470878601,-0.23608547449111938,-0.15948486328125,1724764997.575838
1724764997.605503,5.3500000000000005,-0.001945161819457475,1724764997614092400,1724764997608495400,0.0,-0.0235294122248888,0.7764706015586853,10.574569702148438,-0.010761631652712822,0.04353630915284157,66.0278091430664,330.95794677734375,0.3064761757850647,0.7198740243911743,-0.23571664094924927,-0.159912109375,1724764997.6084955
1724764997.6686375,5.4,-0.01507959365844691,1724764997677631400,1724764997672644800,0.0,-0.0235294122248888,0.7803921699523926,10.760306358337402,-0.010559783317148685,0.044218942523002625,66.5926513671875,330.9645690917969,0.3064720928668976,0.7155508399009705,-0.2352931797504425,-0.1600341796875,1724764997.6726449
1724764997.7270458,5.45,-0.023487854003906072,1724764997731029200,1724764997725050500,0.0,-0.0235294122248888,0.7803921699523926,10.940673828125,-0.010195535607635975,0.04488895460963249,67.15204620361328,330.9710388183594,0.3064683973789215,0.709460437297821,-0.2349243462085724,-0.1600646823644638,1724764997.7250507
1724764997.7555192,5.5,-0.001961231231689453,1724764997762748700,1724764997757513200,0.0,-0.0235294122248888,0.7803921699523926,11.037163734436035,-0.009981848299503326,0.04524813964962959,67.45586395263672,330.974609375,0.3064665198326111,0.7056142091751099,-0.23473992943763733,-0.1601257026195526,1724764997.7575133
1724764997.8250065,5.550000000000001,-0.021448564529418235,1724764997826005000,1724764997822014400,0.0,-0.0705882385373115,0.7803921699523926,11.30032730102539,-0.017910363152623177,0.04626581445336342,68.30135345458984,330.9841003417969,0.30646181106567383,0.6865936517715454,-0.2343096286058426,-0.1622314155101776,1724764997.8220146
1724764997.8605108,5.6000000000000005,-0.006952905654906694,1724764997868489700,1724764997864501000,0.0,-0.0705882385373115,0.7803921699523926,11.394110679626465,-0.020101863890886307,0.046619828790426254,68.60875701904297,330.98736572265625,0.3064601719379425,0.6743121147155762,-0.23413203656673431,-0.1635741889476776,1724764997.864501
1724764997.9200554,5.65,-0.016497468948363903,1724764997921051900,1724764997917668700,0.0,-0.0705882385373115,0.7803921699523926,11.572396278381348,-0.021982459351420403,0.04729856923222542,69.20211029052734,330.9934387207031,0.3064570426940918,0.6448971629142761,-0.2338588386774063,-0.1655883491039276,1724764997.9176688
1724764997.9782584,5.7,-0.02470045089721662,1724764997984321000,1724764997981329200,0.0,-0.0705882385373115,0.7803921699523926,11.8445463180542,-0.021815234795212746,0.04830821603536606,70.13103485107422,331.0022277832031,0.30645209550857544,0.588536262512207,-0.23336705565452576,-0.167236328125,1724764997.9813292
1724764998.0164824,5.75,-0.012924432754516602,1724764998015484800,1724764998012492100,0.0,-0.0705882385373115,0.7803921699523926,11.942388534545898,-0.021336812525987625,0.04866670444607735,70.47197723388672,331.0052795410156,0.306450217962265,0.5657174587249756,-0.2331826388835907,-0.167633056640625,1724764998.0124922
1724764998.0725572,5.800000000000001,-0.018999290466307883,1724764998078542200,1724764998075547900,0.0,-0.0705882385373115,0.7803921699523926,12.120656967163086,-0.020255906507372856,0.049319542944431305,71.10271453857422,331.0105285644531,0.30644676089286804,0.5214946866035461,-0.23285479843616486,-0.1682128608226776,1724764998.075548
1724764998.1240053,5.8500000000000005,-0.02044739723205513,1724764998120012900,1724764998118935800,0.0,-0.0705882385373115,0.7803921699523926,12.301521301269531,-0.01905195042490959,0.04997122287750244,71.75542449951172,331.01556396484375,0.30644306540489197,0.47369489073753357,-0.23247914016246796,-0.1687926948070526,1724764998.1189358
1724764998.1735637,5.9,-0.020005798339843395,1724764998172566900,1724764998170571000,0.0,-0.0235294122248888,0.7803921699523926,12.47597885131836,-0.017898475751280785,0.05059849098324776,72.3973159790039,331.0201110839844,0.3064393699169159,0.4252936840057373,-0.23211713135242462,-0.16937255859375,1724764998.170571
1724764998.236502,5.95,-0.032944011688232244,1724764998236501900,1724764998233510200,0.0,-0.0235294122248888,0.7803921699523926,12.724922180175781,-0.008037588559091091,0.0514606274664402,73.33430480957031,331.0261535644531,0.3064340353012085,0.3597080707550049,-0.23159120976924896,-0.168426513671875,1724764998.2335103
1724764998.2674813,6.0,-0.013923406600952148,1724764998268980800,1724764998265485900,0.0,-0.0235294122248888,0.7803921699523926,12.813819885253906,-0.005128394812345505,0.05177154764533043,73.67501068115234,331.0282287597656,0.3064320981502533,0.3404885530471802,-0.23141363263130188,-0.1674804538488388,1724764998.265486
1724764998.3274918,6.050000000000001,-0.023933839797972922,1724764998332611000,1724764998328489800,0.0,-0.0235294122248888,0.7764706015586853,12.983451843261719,-0.002003865782171488,0.05237066373229027,74.33428192138672,331.03216552734375,0.30642837285995483,0.3085259795188904,-0.23107895255088806,-0.1661987006664276,1724764998.3284898
1724764998.3560097,6.1000000000000005,-0.0024518013000482952,1724764998363524500,1724764998360531200,0.0,-0.0235294122248888,0.7764706015586853,13.074291229248047,-0.0012109455419704318,0.05268586426973343,74.69280242919922,331.0341796875,0.3064263164997101,0.2934521734714508,-0.2308603823184967,-0.16583251953125,1724764998.3605313
1724764998.409538,6.15,-0.005980110168456676,1724764998415657500,1724764998412666500,0.0,-0.0235294122248888,0.7764706015586853,13.252118110656738,-0.0007032861467450857,0.05330323055386543,75.40565490722656,331.0378723144531,0.3064219653606415,0.26703906059265137,-0.23043690621852875,-0.1655883491039276,1724764998.4126668
1724764998.4695413,6.2,-0.01598339080810529,1724764998478518700,1724764998474529300,0.0,-0.0235294122248888,0.7764706015586853,13.507491111755371,-0.0011919396929442883,0.05417352542281151,76.4543228149414,331.04266357421875,0.3064151108264923,0.23431222140789032,-0.2297675460577011,-0.1656494140625,1724764998.4745295
1724764998.521998,6.25,-0.01844000816345215,1724764998520001800,1724764998517203500,0.0,-0.0235294122248888,0.7764706015586853,13.588068962097168,-0.001468727015890181,0.054445382207632065,76.7912368774414,331.04400634765625,0.3064129054546356,0.2249007523059845,-0.22954899072647095,-0.1656799167394638,1724764998.5172036
1724764998.5726001,6.300000000000001,-0.019042205810546164,1724764998571603200,1724764998570605200,0.0,-0.0235294122248888,0.7764706015586853,13.75890064239502,-0.0021073780953884125,0.05502048507332802,77.51504516601562,331.0467834472656,0.3064080774784088,0.20600102841854095,-0.2290913611650467,-0.1657104343175888,1724764998.5706055
1724764998.6244907,6.3500000000000005,-0.020932817459105912,1724764998624490800,1724764998623493500,0.0,-0.0235294122248888,0.7764706015586853,14.004287719726562,-0.0029738503508269787,0.05584052950143814,78.57740783691406,331.0503845214844,0.30640125274658203,0.18063083291053772,-0.22842200100421906,-0.1656188666820526,1724764998.6234934
1724764998.680554,6.4,-0.026995992660522106,1724764998678540200,1724764998677033100,0.0,-0.0235294122248888,0.7764706015586853,14.167135238647461,-0.0034576738253235817,0.05639435350894928,79.29727935791016,331.0525207519531,0.30639687180519104,0.1645587533712387,-0.22802585363388062,-0.16546630859375,1724764998.6770334
1724764998.7109842,6.45,-0.007426309585571111,1724764998709984600,1724764998708983900,0.0,0.0235294122248888,0.7764706015586853,14.249988555908203,-0.0036704051308333874,0.05667079985141754,79.66812133789062,331.0535583496094,0.30639469623565674,0.15653854608535767,-0.22781412303447723,-0.1653747409582138,1724764998.708984
1724764998.7738583,6.5,-0.02030038833618164,1724764998772861600,1724764998771865200,0.0,0.0235294122248888,0.7764706015586853,14.421252250671387,0.004531780257821083,0.0572236143052578,80.80510711669922,331.05682373046875,0.3063884675502777,0.14759965240955353,-0.22717207670211792,-0.1618041843175888,1724764998.7718651
1724764998.803685,6.550000000000001,-0.00012702941894460196,1724764998804681500,1724764998804681500,0.0,0.0235294122248888,0.7764706015586853,14.577766418457031,0.007586316671222448,0.057740166783332825,81.16580963134766,331.0578918457031,0.3063866198062897,0.1493655890226364,-0.22701498866081238,-0.1606445163488388,1724764998.8046815
1724764998.858968,6.6000000000000005,-0.005410099029540483,1724764998858463700,1724764998859968200,0.0,0.0235294122248888,0.7764706015586853,14.749556541442871,0.008095529861748219,0.05831830948591232,81.97042083740234,331.0603942871094,0.30638259649276733,0.15918925404548645,-0.22662566602230072,-0.158721923828125,1724764998.8599684
1724764998.9117684,6.65,-0.008210515975951793,1724764998911768400,1724764998912765700,0.0,0.0235294122248888,0.7764706015586853,14.910917282104492,0.007088624872267246,0.05886531621217728,82.73860931396484,331.06292724609375,0.30637893080711365,0.17433786392211914,-0.2262568324804306,-0.157562255859375,1724764998.9127657
1724764998.9645271,6.7,-0.01096920967102033,1724764998975484700,1724764998966521300,0.0,0.0235294122248888,0.772549033164978,15.077953338623047,0.005286988336592913,0.05943481996655464,83.54673767089844,331.06561279296875,0.3063751757144928,0.19476033747196198,-0.22589483857154846,-0.1566772162914276,1724764998.9665215
1724764999.015982,6.75,-0.012423992156982422,1724764999028437000,1724764999019502100,0.0,-0.0235294122248888,0.7647058963775635,15.23883056640625,0.0032508554868400097,0.059983085840940475,84.3386001586914,331.0685119628906,0.3063715398311615,0.21805769205093384,-0.22555331885814667,-0.1559142917394638,1724764999.0195022
1724764999.0724993,6.800000000000001,-0.018941354751586204,1724764999079706100,1724764999071502000,0.0,-0.0235294122248888,0.7647058963775635,15.407875061035156,-0.007557826582342386,0.06055496633052826,85.18861389160156,331.0715026855469,0.30636709928512573,0.23791491985321045,-0.2250957041978836,-0.1572265625,1724764999.0715022
1724764999.1146774,6.8500000000000005,-0.0111195087432856,1724764999120849700,1724764999112682800,0.0,-0.0235294122248888,0.7607843279838562,15.557327270507812,-0.012558693997561932,0.06103098392486572,85.95630645751953,331.0740966796875,0.3063622713088989,0.24814088642597198,-0.22463807463645935,-0.1588134616613388,1724764999.1126828
1724764999.1630728,6.9,-0.009514904022216442,1724764999174028700,1724764999165068100,0.0,-0.0235294122248888,0.7568627595901489,15.703965187072754,-0.014829195104539394,0.06146235391497612,86.72423553466797,331.0767517089844,0.30635663866996765,0.25291702151298523,-0.22409166395664215,-0.159698486328125,1724764999.1650681
1724764999.2332022,6.95,-0.02964429855346662,1724764999237191100,1724764999230054100,0.0,-0.0235294122248888,0.7568627595901489,15.858016967773438,-0.01546532567590475,0.06188957393169403,87.5465316772461,331.0795593261719,0.3063499331474304,0.25342515110969543,-0.22344963252544403,-0.1600646823644638,1724764999.2300541
1724764999.2669866,7.0,-0.013428688049316406,1724764999269521900,1724764999262000000,0.0,-0.0235294122248888,0.7490196228027344,15.93020248413086,-0.015368829481303692,0.062086038291454315,87.93740844726562,331.0808410644531,0.3063466250896454,0.2523559331893921,-0.22314226627349854,-0.1601257175207138,1724764999.2620003
1724764999.3044872,7.050000000000001,-0.0009293079376213598,1724764999311014800,1724764999303489800,0.0,-0.0235294122248888,0.7372549176216125,16.082008361816406,-0.014649770222604275,0.062479548156261444,88.77190399169922,331.0837097167969,0.3063393235206604,0.24778860807418823,-0.22244559228420258,-0.1601257175207138,1724764999.30349
1724764999.3736756,7.1000000000000005,-0.02011766433715767,1724764999385271400,1724764999378661900,0.0,-0.0235294122248888,0.7058823704719543,16.313325881958008,-0.01281563751399517,0.06300683319568634,90.09002685546875,331.0882873535156,0.3063259720802307,0.23571781814098358,-0.22116151452064514,-0.160247802734375,1724764999.378662
1724764999.4190354,7.15,-0.015477514266967418,1724764999416536600,1724764999409554500,0.0,-0.0235294122248888,0.6745098233222961,16.382125854492188,-0.012189864180982113,0.06313075870275497,90.49674224853516,331.0896301269531,0.30632105469703674,0.23106904327869415,-0.22066974639892578,-0.1603393405675888,1724764999.4095545
1724764999.4785244,7.2,-0.024966526031493963,1724764999479649100,1724764999482641400,0.0,-0.0235294122248888,0.5647059082984924,16.528059005737305,-0.010786011815071106,0.0633094534277916,91.39659881591797,331.0926208496094,0.30630722641944885,0.21953333914279938,-0.21935833990573883,-0.1606445014476776,1724764999.4826415
1724764999.5145612,7.25,-0.011003255844116211,1724764999510571900,1724764999513564500,0.0,-0.0235294122248888,0.4666666686534881,16.654733657836914,-0.009464171715080738,0.0632251501083374,92.26168060302734,331.0953369140625,0.30628702044487,0.20704486966133118,-0.21741174161434174,-0.1610107421875,1724764999.5135646
1724764999.5574665,7.300000000000001,-0.003908586502074485,1724764999552479400,1724764999555471500,0.0,-0.0235294122248888,0.2980392277240753,16.707637786865234,-0.008847580291330814,0.0630408301949501,92.67265319824219,331.09661865234375,0.3062731623649597,0.20066198706626892,-0.216093510389328,-0.1612243503332138,1724764999.5554717
1724764999.6155412,7.3500000000000005,-0.01198329925537056,1724764999614544100,1724764999617537500,0.0,-0.0235294122248888,0.1568627506494522,16.829164505004883,-0.006858711130917072,0.061260320246219635,93.99468231201172,331.1006164550781,0.3061939477920532,0.17804473638534546,-0.2084915190935135,-0.1619872748851776,1724764999.6175377
1724764999.6675072,7.4,-0.013949251174926403,1724764999666509600,1724764999671011200,0.0,-0.0235294122248888,0.1098039224743843,16.863441467285156,-0.005525186657905579,0.058878228068351746,94.85686492919922,331.1029968261719,0.3061046898365021,0.16139276325702667,-0.19998109340667725,-0.1625366061925888,1724764999.6710114
1724764999.7206938,7.45,-0.017135906219482244,1724764999720693800,1724764999723684300,0.0,-0.0235294122248888,0.0862745121121406,16.868728637695312,-0.0041037676855921745,0.05544135347008705,95.7554702758789,331.1052551269531,0.3059820532798767,0.1423337757587433,-0.1882604956626892,-0.1631469577550888,1724764999.7236845
1724764999.7716234,7.5,-0.018065452575683594,1724764999774616600,1724764999766988000,0.0,-0.0235294122248888,0.105882354080677,16.85236930847168,-0.0027702057268470526,0.05168526619672775,96.59986877441406,331.1072082519531,0.3058507442474365,0.12289538979530334,-0.17568612098693848,-0.1637572944164276,1724764999.766988
1724764999.839578,7.550000000000001,-0.03601999282836843,1724764999838579100,1724764999840575400,0.0,0.0235294122248888,0.1176470592617988,16.824007034301758,0.006487911567091942,0.047747429460287094,97.4581527709961,331.1092224121094,0.30571430921554565,0.10850085318088531,-0.16266094148159027,-0.1625060737133026,1724764999.8405757
1724764999.868543,7.6000000000000005,-0.014984989166259233,1724764999870567700,1724764999873553300,0.0,0.0235294122248888,0.1176470592617988,16.807281494140625,0.009180992841720581,0.0458725281059742,97.88595581054688,331.1102600097656,0.3056495785713196,0.10461904108524323,-0.15645913779735565,-0.1615295112133026,1724764999.8735535
1724764999.9064999,7.65,-0.002941942214965465,1724764999902510200,1724764999905502400,0.0,0.0235294122248888,0.1176470592617988,16.76905059814453,0.012021936476230621,0.04235885664820671,98.7787094116211,331.1125183105469,0.30552780628204346,0.10228543728590012,-0.14484098553657532,-0.159942626953125,1724764999.9055026
1724764999.9725106,7.7,-0.01895265579223615,1724764999965999400,1724764999969519100,0.0,0.0235294122248888,0.1176470592617988,16.729049682617188,0.012440066784620285,0.03959006443619728,99.64347076416016,331.11468505859375,0.30543234944343567,0.10598312318325043,-0.1357090175151825,-0.1590575873851776,1724764999.9695191
1724765000.0039947,7.75,-0.0004367828369140625,1724764999997488200,1724765000001003400,0.0,0.0235294122248888,0.1176470592617988,16.706504821777344,0.01207826379686594,0.038351427763700485,100.11333465576172,331.11590576171875,0.3053898513317108,0.10999365150928497,-0.1316450536251068,-0.1587524265050888,1724765000.0010037
1724765000.0824833,7.800000000000001,-0.028925371170043235,1724765000082483100,1724765000085473200,0.0,0.0235294122248888,0.1176470592617988,16.636638641357422,0.009772203862667084,0.03571813926100731,101.52503967285156,331.11956787109375,0.30530044436454773,0.12849724292755127,-0.12311415374279022,-0.1581420749425888,1724765000.0854733
1724765000.1170616,7.8500000000000005,-0.013503694534301225,1724765000114071400,1724765000118572100,0.0,0.0235294122248888,0.1215686276555061,16.59504508972168,0.008121957071125507,0.0348159521818161,102.34800720214844,331.121826171875,0.3052707016468048,0.1426974982023239,-0.1202932819724083,-0.1578063815832138,1724765000.1185722
1724765000.1550133,7.9,-0.0014554023742672229,1724765000145515300,1724765000151024300,0.0,0.0235294122248888,0.1215686276555061,16.572200775146484,0.007210669107735157,0.03446616977453232,102.79964447021484,331.1231689453125,0.305259644985199,0.1513211876153946,-0.1192346066236496,-0.1575622260570526,1724765000.1510246
1724765000.2297325,7.95,-0.02617459297180158,1724765000228732600,1724765000234719200,0.0,0.0235294122248888,0.125490203499794,16.50600814819336,0.0047593796625733376,0.03389405459165573,104.11103057861328,331.1271057128906,0.3052434027194977,0.1789265275001526,-0.11770464479923248,-0.15673828125,1724765000.2347193
1724765000.2627218,8.0,-0.009163856506347656,1724765000260726900,1724765000266710300,0.0,0.0235294122248888,0.125490203499794,16.485776901245117,0.0040913792327046394,0.0338125117123127,104.513427734375,331.1283874511719,0.3052419126033783,0.1880132108926773,-0.11755438148975372,-0.156463623046875,1724765000.2667103
1724765000.3075018,8.05,-0.003943872451781516,1724765000303512400,1724765000310003700,0.0,0.0235294122248888,0.125490203499794,16.443796157836914,0.0028324523009359837,0.033736612647771835,105.35579681396484,331.13134765625,0.3052420914173126,0.2077741175889969,-0.11758170276880264,-0.1558837741613388,1724765000.3100038
1724765000.3540373,8.1,-0.00047936439514195683,1724765000345551600,1724765000352042100,0.0,0.0235294122248888,0.125490203499794,16.403892517089844,0.0018084978219121695,0.033747363835573196,106.16368103027344,331.1343688964844,0.30524516105651855,0.22749105095863342,-0.11788906157016754,-0.155303955078125,1724765000.3520422
1724765000.4327857,8.15,-0.029227828979491832,1724765000441521600,1724765000436775100,0.0,0.0235294122248888,0.125490203499794,16.345022201538086,0.0005913724307902157,0.03381824120879173,107.36500549316406,331.13922119140625,0.3052520155906677,0.2578708231449127,-0.11855841428041458,-0.1545105129480362,1724765000.4367752
1724765000.4606557,8.200000000000001,-0.00709776878356827,1724765000462651300,1724765000458574600,0.0,0.0235294122248888,0.125490203499794,16.32672882080078,0.0002802083326969296,0.03384367376565933,107.74006652832031,331.1408996582031,0.3052542507648468,0.26756006479263306,-0.11877698451280594,-0.1542968600988388,1724765000.4585748
1724765000.5085568,8.25,-0.004998922348022461,1724765000515538800,1724765000512546700,0.0,0.0235294122248888,0.1294117718935012,16.28849983215332,-0.0002801817317958921,0.03388778865337372,108.52613067626953,331.14447021484375,0.3052588403224945,0.2881195843219757,-0.1192004531621933,-0.153839111328125,1724765000.512547
1724765000.5725653,8.3,-0.019007396697997336,1724765000579720200,1724765000575556900,0.0,0.0235294122248888,0.1215686276555061,16.230369567871094,-0.000927864748518914,0.03393348678946495,109.73016357421875,331.15057373046875,0.3052648603916168,0.3201417922973633,-0.1197810173034668,-0.15325927734375,1724765000.575557
1724765000.619157,8.35,-0.015599155426025746,1724765000622527700,1724765000617654200,0.0,0.0235294122248888,0.1137254908680915,16.193517684936523,-0.0012305289274081588,0.03394434601068497,110.49982452392578,331.15472412109375,0.3052680790424347,0.3408697247505188,-0.1200883761048317,-0.1529541015625,1724765000.6176543
1724765000.6544747,8.4,-0.0009168148040767932,1724765000653477100,1724765000650485800,0.0,0.0235294122248888,0.1137254908680915,16.17584228515625,-0.0013489904813468456,0.03394245728850365,110.86517333984375,331.1568298339844,0.30526936054229736,0.3507651388645172,-0.12021132558584213,-0.15283203125,1724765000.6504858
1724765000.714068,8.450000000000001,-0.010510015487669833,1724765000717059400,1724765000714068000,0.0,-0.0235294122248888,0.1137254908680915,16.117706298828125,-0.006307865492999554,0.033890824764966965,112.03669738769531,331.1639099121094,0.30527153611183167,0.3807259202003479,-0.12041623145341873,-0.153167724609375,1724765000.7140682
1724765000.7770398,8.5,-0.02348184585571289,1724765000781958700,1724765000777040000,0.0,-0.0235294122248888,0.1137254908680915,16.059988021850586,-0.012902636080980301,0.03377022221684456,113.17417907714844,331.1707763671875,0.3052707314491272,0.39331531524658203,-0.12035475671291351,-0.15625,1724765000.77704
1724765000.805055,8.55,-0.00149698257446218,1724765000803059900,1724765000800065700,0.0,-0.0235294122248888,0.1137254908680915,16.059988021850586,-0.012902636080980301,0.03377022221684456,113.17417907714844,331.1707763671875,0.3052707314491272,0.39331531524658203,-0.12035475671291351,-0.15625,1724765000.800066
1724765000.8875072,8.6,-0.033949279785156605,1724765000888516000,1724765000884514900,0.0,-0.0235294122248888,0.1137254908680915,15.980925559997559,-0.01310719083994627,0.03351406008005142,114.71575927734375,331.17999267578125,0.3052673637866974,0.38760119676589966,-0.12002690881490707,-0.1590270698070526,1724765000.8845148
1724765000.9335096,8.65,-0.029951667785644176,1724765000941055300,1724765000936501200,0.0,-0.0235294122248888,0.1098039224743843,15.942476272583008,-0.011658821254968643,0.03338811919093132,115.4631118774414,331.18450927734375,0.3052655756473541,0.3782275915145874,-0.11987664550542831,-0.1597900390625,1724765000.9365013
1724765000.9814935,8.700000000000001,-0.027935552597044833,1724765000983488500,1724765000979021100,0.0,-0.0235294122248888,0.1098039224743843,15.903926849365234,-0.009864162653684616,0.03325813263654709,116.20895385742188,331.18896484375,0.3052639961242676,0.3657492995262146,-0.11971955001354218,-0.1604614108800888,1724765000.979021
1724765001.009548,8.75,-0.005990028381347656,1724765001014533700,1724765001010544500,0.0,-0.0235294122248888,0.1098039224743843,15.883922576904297,-0.008893273770809174,0.03319622203707695,116.59351348876953,331.1912841796875,0.3052632212638855,0.35831567645072937,-0.11965807527303696,-0.1607971042394638,1724765001.0105445
1724765001.06187,8.8,-0.008312177658080344,1724765001066856400,1724765001062866700,0.0,-0.0235294122248888,0.1176470592617988,15.825865745544434,-0.0061749680899083614,0.03300989791750908,117.70418548583984,331.1976623535156,0.30526116490364075,0.3338342607021332,-0.11944634467363358,-0.1617736518383026,1724765001.0628667
1724765001.1144965,8.85,-0.010938549041748402,1724765001120090000,1724765001116491500,0.0,-0.0235294122248888,0.1372549086809158,15.787395477294922,-0.004539568442851305,0.032901618629693985,118.44630432128906,331.2017822265625,0.30526015162467957,0.3155004680156708,-0.11935754865407944,-0.1624755561351776,1724765001.1164916
1724765001.1685317,8.9,-0.014973735809325817,1724765001173537000,1724765001170546000,0.0,-0.0235294122248888,0.1607843190431594,15.750115394592285,-0.003076454857364297,0.03282637894153595,119.20452117919922,331.205810546875,0.30526041984558105,0.29555460810661316,-0.11938486993312836,-0.1632080078125,1724765001.170546
1724765001.2217667,8.950000000000001,-0.018208789825438387,1724765001226754500,1724765001224759900,0.0,-0.0235294122248888,0.1843137294054031,15.716842651367188,-0.0018705005059018731,0.03282824158668518,119.94422912597656,331.2095642089844,0.3052632212638855,0.27520862221717834,-0.11965807527303696,-0.163909912109375,1724765001.2247598
1724765001.2559886,9.0,-0.0024306774139404297,1724765001259510700,1724765001256985100,0.0,-0.0235294122248888,0.2000000029802322,15.687835693359375,-0.000891920761205256,0.032923586666584015,120.67338562011719,331.2130432128906,0.3052694797515869,0.25452616810798645,-0.12023864686489105,-0.16455078125,1724765001.2569852
1724765001.3144937,9.05,-0.010935735702513938,1724765001311503900,1724765001311503900,0.0,-0.0235294122248888,0.2274509817361831,15.663254737854004,-9.562975901644677e-05,0.03315390273928642,121.41715240478516,331.21630859375,0.30528029799461365,0.23298731446266174,-0.12127683311700821,-0.165191650390625,1724765001.311504
1724765001.371097,9.1,-0.01753916740417516,1724765001374603100,1724765001374603100,0.0,-0.0235294122248888,0.2549019753932953,15.637787818908691,0.0007564931875094771,0.03378049284219742,122.53459930419922,331.2209167480469,0.30530622601509094,0.20016436278820038,-0.12378351390361786,-0.1659850925207138,1724765001.374603
1724765001.4245474,9.15,-0.02098951339721644,1724765001427539400,1724765001427539400,0.0,-0.0235294122248888,0.2705882489681244,15.628373146057129,0.0011373787419870496,0.03438400849699974,123.28604888916016,331.2236633300781,0.30533018708229065,0.17797823250293732,-0.12606479227542877,-0.16644287109375,1724765001.4275396
1724765001.4847028,9.200000000000001,-0.031144905090330965,1724765001480713400,1724765001480713400,0.0,-0.0235294122248888,0.2862745225429535,15.628373146057129,0.0011373787419870496,0.03438400849699974,123.28604888916016,331.2236633300781,0.30533018708229065,0.17797823250293732,-0.12606479227542877,-0.16644287109375,1724765001.4807136
1724765001.5120127,9.25,-0.00845479965209961,1724765001513009500,1724765001514008400,0.0,-0.0235294122248888,0.2901960909366607,15.626029014587402,0.0015605476219207048,0.03581750765442848,124.70075988769531,331.22802734375,0.30538564920425415,0.13630066812038422,-0.13135136663913727,-0.1670837253332138,1724765001.5140085
