frame_timestamp_original,frame_timestamp_new,residual,time_hardwaremanager,time_carla,brake,steer,throttle,ego_vx,ego_vy,ego_vz,ego_x,ego_y,ego_z,ego_yaw,ego_pitch,ego_roll,time_carla_s
1724940669.567459,0.0,0.0,1724940669560912200,1724940669562907000,-1.0,0.0,1.0,6.809028491261415e-06,-3.4785800835379632e-06,-0.0037745372392237186,51.5718994140625,330.8496398925781,0.30586594343185425,8.722389611648396e-05,-0.133967325091362,-0.1606445163488388,1724940669.562907
1724940669.6229768,0.05,-0.005517673492431638,1724940669615390500,1724940669624970000,-1.0,0.0,1.0,1.8683092548599234e-06,8.651318239571992e-06,-0.002874304074794054,51.5718994140625,330.8496398925781,0.30564579367637634,8.66313130245544e-05,-0.13424736261367798,-0.16036982834339142,1724940669.6249702
1724940669.680662,0.1,-0.01320281028747558,1724940669678666900,1724940669679664000,-1.0,0.0,1.0,1.0025500785104668e-07,8.682557563588489e-06,-0.002257400657981634,51.5718994140625,330.8496398925781,0.30555057525634766,8.631805394543335e-05,-0.13446593284606934,-0.1602172553539276,1724940669.6796641
1724940669.7353776,0.15000000000000002,-0.017918443679809548,1724940669732386100,1724940669732386100,-1.0,0.0,1.0,-2.5508754788461374e-06,-6.692479018965969e-06,-0.0009583598002791405,51.5718994140625,330.8496398925781,0.3054741322994232,8.631472155684605e-05,-0.1345820426940918,-0.1601562350988388,1724940669.732386
1724940669.7863731,0.2,-0.018914031982421864,1724940669786373200,1724940669785375100,-1.0,0.0,1.0,-1.5060622899909504e-06,-5.0170515351055656e-06,-0.0008763273945078254,51.5718994140625,330.8496398925781,0.3053683042526245,8.589038770878688e-05,-0.13495087623596191,-0.1599731147289276,1724940669.785375
1724940669.8206918,0.25,-0.003232717514038086,1724940669818695900,1724940669818695900,-1.0,0.0,1.0,-2.4375115117436508e-06,-3.00306214739976e-06,-0.00030320705263875425,51.5718994140625,330.8496398925781,0.3053618371486664,8.589038770878688e-05,-0.13495087623596191,-0.1599731147289276,1724940669.818696
1724940669.8763685,0.30000000000000004,-0.008909416198730424,1724940669873374700,1724940669872377400,-1.0,0.0,1.0,-1.2915938896185253e-06,-2.756106823653681e-06,-0.00042759659118019044,51.5718994140625,330.8496398925781,0.3053382337093353,8.576732943765819e-05,-0.13507381081581116,-0.1599120944738388,1724940669.8723774
1724940669.9393966,0.35000000000000003,-0.021937513351440396,1724940669937277400,1724940669937277400,-1.0,0.0,1.0,-8.56341102917213e-07,-1.2935611266584601e-06,-0.00017076052608899772,51.5718994140625,330.8496398925781,0.30532267689704895,8.564404561184347e-05,-0.13518992066383362,-0.1598510593175888,1724940669.9372776
1724940669.9716647,0.4,-0.004205560684204079,1724940669968671300,1724940669968671300,-1.0,0.0,1.0,-1.598092467247625e-07,-4.034671619024266e-08,3.8620994018856436e-05,51.5718994140625,330.8496398925781,0.30532267689704895,8.564404561184347e-05,-0.13518992066383362,-0.1598510593175888,1724940669.9686713
1724940670.0425487,0.45,-0.025089550018310536,1724940670043551400,1724940670041551800,-1.0,0.0,1.0,1.8857332406696514e-06,-2.6406348752061604e-06,-0.0008326105307787657,51.5718994140625,330.8496398925781,0.30529049038887024,8.564404561184347e-05,-0.13518992066383362,-0.1598510593175888,1724940670.041552
1724940670.0919049,0.5,-0.024445772171020508,1724940670098424500,1724940670094897400,-1.0,0.0,1.0,4.511902318427019e-07,-9.03737827684381e-07,-0.000220735659240745,51.5718994140625,330.8496398925781,0.3052849769592285,8.564404561184347e-05,-0.13518992066383362,-0.1598510593175888,1724940670.0948975
1724940670.1395364,0.55,-0.02207727432250972,1724940670141530400,1724940670138539700,-1.0,0.0,1.0,-9.695069991266791e-08,-1.4029745898369583e-07,2.109387241944205e-05,51.5718994140625,330.8496398925781,0.30530184507369995,8.564404561184347e-05,-0.13518992066383362,-0.1598510593175888,1724940670.1385398
1724940670.1839755,0.6000000000000001,-0.016516351699829013,1724940670183975300,1724940670179987400,-1.0,0.0,1.0,2.9327634365472477e-07,-5.585185363088385e-07,-0.0001435623416909948,51.5718994140625,330.8496398925781,0.30529776215553284,8.564404561184347e-05,-0.13518992066383362,-0.1598510593175888,1724940670.1799877
1724940670.2374861,0.65,-0.020027017593383767,1724940670238473900,1724940670242463600,-1.0,0.0,1.0,-2.750938392637181e-07,1.4316441365735955e-07,0.00010511006257729605,51.5718994140625,330.8496398925781,0.305314838886261,8.564404561184347e-05,-0.13518992066383362,-0.1598510593175888,1724940670.2424636
1724940670.2763727,0.7000000000000001,-0.00891356468200677,1724940670270388800,1724940670274380100,-1.0,0.0,1.0,-1.9700055418070406e-06,2.221224804088706e-06,0.0008247577352449298,51.5718994140625,330.8496398925781,0.30533289909362793,8.564404561184347e-05,-0.13518992066383362,-0.1598510593175888,1724940670.2743802
1724940670.3263688,0.75,-0.00890970230102539,1724940670325370300,1724940670327496200,-1.0,0.0,1.0,4.793200787389651e-07,-6.317634984043252e-07,-0.00020667121862061322,51.5718994140625,330.8496398925781,0.3053165078163147,8.564404561184347e-05,-0.13518992066383362,-0.1598510593175888,1724940670.3274963
1724940670.378407,0.8,-0.010947895050048784,1724940670379403800,1724940670382397600,-1.0,0.0,1.0,9.59158455771103e-07,-1.1464105682534864e-06,-0.0004110554000362754,51.5718994140625,330.8496398925781,0.30531036853790283,8.564404561184347e-05,-0.13518992066383362,-0.1598510593175888,1724940670.382398
1724940670.4354138,0.8500000000000001,-0.01795473098754874,1724940670432421600,1724940670434415900,-1.0,0.0,1.0,-9.473466775489214e-07,1.0485689472261583e-06,0.0003956581640522927,51.5718994140625,330.8496398925781,0.30530744791030884,8.564404561184347e-05,-0.13518992066383362,-0.1598510593175888,1724940670.434416
1724940670.4875789,0.9,-0.020119762420654275,1724940670486385100,1724940670488579800,-1.0,0.0,1.0,-1.4180837979438365e-06,1.6563839153604931e-06,0.0006049835938028991,51.5718994140625,330.8496398925781,0.3053100109100342,8.564404561184347e-05,-0.13518992066383362,-0.1598510593175888,1724940670.48858
1724940670.5377216,0.9500000000000001,-0.020262527465820246,1724940670538717900,1724940670540713300,-1.0,0.0,1.0,1.8159194326017314e-07,-1.8597386031160568e-07,-7.716936670476571e-05,51.5718994140625,330.8496398925781,0.30529892444610596,8.564404561184347e-05,-0.13518992066383362,-0.1598510593175888,1724940670.5407133
1724940670.5819144,1.0,-0.014455318450927734,1724940670582910900,1724940670582910900,-1.0,0.0,1.0,-2.351602688577259e-06,2.7662324555421947e-06,0.0009993582498282194,51.5718994140625,330.8496398925781,0.3053131103515625,8.564404561184347e-05,-0.13518992066383362,-0.1598510593175888,1724940670.582911
1724940670.6354716,1.05,-0.018012475967407182,1724940670628492000,1724940670634474300,-1.0,0.0,1.0,5.492905188475561e-07,-6.339465699056746e-07,-0.00023204619355965406,51.5718994140625,330.8496398925781,0.30530643463134766,8.564404561184347e-05,-0.13518992066383362,-0.1598510593175888,1724940670.6344743
1724940670.6804142,1.1,-0.012955093383788974,1724940670671908500,1724940670677421600,-1.0,0.0,1.0,-1.0189294243900804e-06,1.1771570598284598e-06,0.00043466308852657676,51.5718994140625,330.8496398925781,0.3053089380264282,8.564404561184347e-05,-0.13518992066383362,-0.1598510593175888,1724940670.6774216
1724940670.7297587,1.1500000000000001,-0.012299633026122914,1724940670727697700,1724940670730755700,-1.0,0.0,1.0,-1.8007530115937698e-06,2.0916406811011257e-06,0.0007673413492739201,51.5718994140625,330.8496398925781,0.305307537317276,8.564404561184347e-05,-0.13518992066383362,-0.1598510593175888,1724940670.7307558
1724940670.7794607,1.2000000000000002,-0.012001562118530096,1724940670770586200,1724940670774576900,-1.0,0.0,1.0,0.0,0.0,0.0,51.5718994140625,330.8496398925781,0.305307537317276,8.564404561184347e-05,-0.13518992066383362,-0.1598510593175888,1724940670.774577
1724940670.8249757,1.25,-0.007516622543334961,1724940670822980000,1724940670828006000,-1.0,0.0,1.0,-1.2393124961818103e-06,1.4164339745548205e-06,0.0005230295937508345,51.5718994140625,330.8496398925781,0.30531954765319824,8.564404561184347e-05,-0.13518992066383362,-0.1598510593175888,1724940670.828006
1724940670.8895886,1.3,-0.022129487991332963,1724940670887475000,1724940670891581100,-1.0,0.0,1.0,6.477828264905838e-07,-7.784670401633775e-07,-0.00027836181106977165,51.5718994140625,330.8496398925781,0.3053123354911804,8.564404561184347e-05,-0.13518992066383362,-0.1598510593175888,1724940670.8915813
1724940670.9194176,1.35,-0.0019585132598876065,1724940670918419200,1724940670922409500,-1.0,0.0,1.0,3.2004163585952483e-07,-3.968394537423592e-07,-0.00013417012814898044,51.5718994140625,330.8496398925781,0.30532345175743103,8.564404561184347e-05,-0.13518992066383362,-0.1598510593175888,1724940670.9224095
1724940670.990453,1.4000000000000001,-0.0229938983917235,1724940670981938900,1724940670987456800,-1.0,0.0,1.0,-1.5612845345458481e-06,1.8274122339789756e-06,0.00066085543949157,51.5718994140625,330.8496398925781,0.3053344786167145,8.564404561184347e-05,-0.13518992066383362,-0.1598510593175888,1724940670.9874568
1724940671.040497,1.4500000000000002,-0.023037958145141424,1724940671045483600,1724940671050458000,-1.0,0.0,1.0,1.991037379411864e-07,-2.4919296492953436e-07,-8.255702414317057e-05,51.5718994140625,330.8496398925781,0.30531811714172363,8.564404561184347e-05,-0.13518992066383362,-0.1598510593175888,1724940671.0504582
1724940671.073913,1.5,-0.006453990936279297,1724940671066891300,1724940671071919900,-1.0,0.0,1.0,-1.0203860938418075e-06,1.1923680176550988e-06,0.0004354699922259897,51.5718994140625,330.8496398925781,0.3053286075592041,8.564404561184347e-05,-0.13518992066383362,-0.1598510593175888,1724940671.07192
1724940671.126255,1.55,-0.00879592895507808,1724940671120755800,1724940671124746800,-1.0,0.0,1.0,8.036441272452066e-07,-9.104674063564744e-07,-0.0003436825063545257,51.5718994140625,330.8496398925781,0.3053154945373535,8.564404561184347e-05,-0.13518992066383362,-0.1598510593175888,1724940671.1247468
1724940671.1825345,1.6,-0.015075349807739169,1724940671174534500,1724940671179543600,-1.0,0.0,1.0,-1.4362311162585684e-07,1.5445188239482377e-07,5.9065554523840547e-05,51.5718994140625,330.8496398925781,0.3053255081176758,8.564404561184347e-05,-0.13518992066383362,-0.1598510593175888,1724940671.1795437
1724940671.2338054,1.6500000000000001,-0.016346311569213734,1724940671238398200,1724940671243384700,-1.0,0.0,1.0,2.2605523497531976e-07,-2.3183694963790913e-07,-9.946434875018895e-05,51.5718994140625,330.8496398925781,0.3053397536277771,8.564404561184347e-05,-0.13518992066383362,-0.1598510593175888,1724940671.2433846
1724940671.279079,1.7000000000000002,-0.011619853973388494,1724940671281072300,1724940671286568600,-1.0,0.0,1.0,1.4872469478177663e-07,-1.7337072222289862e-07,-5.822610546601936e-05,51.5718994140625,330.8496398925781,0.3053273558616638,8.564404561184347e-05,-0.13518992066383362,-0.1598510593175888,1724940671.2865689
1724940671.3315034,1.75,-0.01404428482055664,1724940671334495800,1724940671340466500,-1.0,0.0,1.0,2.643767629706417e-06,-3.1282552299671806e-06,-0.001125248847529292,51.5718994140625,330.8496398925781,0.3053032159805298,8.564404561184347e-05,-0.13518992066383362,-0.1598510593175888,1724940671.3404665
1724940671.3764467,1.8,-0.008987617492675737,1724940671378921900,1724940671382911800,-1.0,0.0,1.0,-1.948429826370557e-06,2.260423798361444e-06,0.0008295311708934605,51.5718994140625,330.8496398925781,0.3053223788738251,8.564404561184347e-05,-0.13518992066383362,-0.1598510593175888,1724940671.382912
1724940671.4274178,1.85,-0.009958648681640536,1724940671431913700,1724940671424898200,-1.0,0.0,1.0,9.276930654777971e-07,-1.0715959888329962e-06,-0.00039618584560230374,51.5718994140625,330.8496398925781,0.30531418323516846,8.564404561184347e-05,-0.13518992066383362,-0.1598510593175888,1724940671.4248984
1724940671.4738874,1.9000000000000001,-0.0064283370971678355,1724940671473887600,1724940671468900500,-1.0,0.0,1.0,-1.932194891196559e-06,2.2306228402158013e-06,0.0008225905476137996,51.5718994140625,330.8496398925781,0.30533313751220703,8.564404561184347e-05,-0.13518992066383362,-0.1598510593175888,1724940671.4689007
1724940671.5285423,1.9500000000000002,-0.011083173751830877,1724940671528542300,1724940671533015500,-1.0,0.0,1.0,2.268198500132712e-07,-3.278492783920228e-07,-9.770455653779209e-05,51.5718994140625,330.8496398925781,0.3053206503391266,8.564404561184347e-05,-0.13518992066383362,-0.1598510593175888,1724940671.5330157
1724940671.5834515,2.0,-0.015992403030395508,1724940671584449300,1724940671585446500,-1.0,0.0,1.0,-1.3120607889050007e-07,1.8938108325983194e-07,5.43450987606775e-05,51.5718994140625,330.8496398925781,0.3053312301635742,8.564404561184347e-05,-0.13518992066383362,-0.1598510593175888,1724940671.5854466
1724940671.63487,2.0500000000000003,-0.017410945892333718,1724940671638474600,1724940671639472500,-1.0,0.0,1.0,-1.3706900290344493e-06,1.5580984609186999e-06,0.0005782421794719994,51.5718994140625,330.8496398925781,0.30534499883651733,8.564404561184347e-05,-0.13518992066383362,-0.1598510593175888,1724940671.6394725
1724940671.6849718,2.1,-0.017512702941894442,1724940671681983100,1724940671681983100,-1.0,0.0,1.0,-1.4834407693342655e-06,1.7454558474128135e-06,0.0006306201685220003,51.5718994140625,330.8496398925781,0.30534887313842773,8.564404561184347e-05,-0.13518992066383362,-0.1598510593175888,1724940671.681983
1724940671.7389803,2.15,-0.02152118682861337,1724940671736495400,1724940671736495400,-1.0,0.0,1.0,1.537980125476679e-07,-1.5473858638870297e-07,-6.484906771220267e-05,51.5718994140625,330.8496398925781,0.3053475022315979,8.564404561184347e-05,-0.13518992066383362,-0.1598510593175888,1724940671.7364955
1724940671.7865124,2.2,-0.01905326843261701,1724940671791011200,1724940671790012900,-1.0,0.0,1.0,1.4320013406177168e-06,-1.6569517811149126e-06,-0.0006065185298211873,51.5718994140625,330.8496398925781,0.30533456802368164,8.564404561184347e-05,-0.13518992066383362,-0.1598510593175888,1724940671.790013
1724940671.8185072,2.25,-0.0010480880737304688,1724940671822496000,1724940671821498800,-1.0,0.0,1.0,3.7880082004448923e-07,-5.111218115416705e-07,-0.00016334024257957935,51.5718994140625,330.8496398925781,0.3053302764892578,8.564404561184347e-05,-0.13518992066383362,-0.1598510593175888,1724940671.8214989
1724940671.8780186,2.3000000000000003,-0.010559511184692116,1724940671875550800,1724940671874553300,-1.0,0.0,1.0,-1.2008956673525972e-06,1.398438030264515e-06,0.0005075340741313994,51.5718994140625,330.8496398925781,0.30534034967422485,8.564404561184347e-05,-0.13518992066383362,-0.1598510593175888,1724940671.8745534
1724940671.9272234,2.35,-0.009764337539672763,1724940671929217000,1724940671928219600,-1.0,0.0,1.0,-7.183533057286695e-07,8.286644970212365e-07,0.0003072538529522717,51.5718994140625,330.8496398925781,0.305338591337204,8.564404561184347e-05,-0.13518992066383362,-0.1598510593175888,1724940671.9282198
1724940671.9776306,2.4000000000000004,-0.010171508789062145,1724940671982618300,1724940671980623800,-1.0,0.0,1.0,8.942267868405906e-07,-1.0250337254547048e-06,-0.0003772488562390208,51.5718994140625,330.8496398925781,0.3053238093852997,8.564404561184347e-05,-0.13518992066383362,-0.1598510593175888,1724940671.980624
1724940672.0244513,2.45,-0.006992149353027166,1724940672026950000,1724940672023453400,-1.0,0.0,1.0,1.6172305095096817e-06,-1.9028354927286273e-06,-0.0006819398840889335,51.5718994140625,330.8496398925781,0.30530983209609985,8.564404561184347e-05,-0.13518992066383362,-0.1598510593175888,1724940672.0234535
1724940672.0734072,2.5,-0.005948066711425781,1724940672081939300,1724940672076904500,-1.0,0.0,1.0,3.842547187105083e-07,-4.4696804479826824e-07,-0.00015876800171099603,51.5718994140625,330.8496398925781,0.30529093742370605,8.564404561184347e-05,-0.13518992066383362,-0.1598510593175888,1724940672.0769045
1724940672.1204605,2.5500000000000003,-0.0030014038085934835,1724940672124450000,1724940672119463800,-1.0,0.0,1.0,-1.2221623535424442e-07,1.236689115557965e-07,5.200425584916957e-05,51.5718994140625,330.8496398925781,0.3053005635738373,8.564404561184347e-05,-0.13518992066383362,-0.1598510593175888,1724940672.1194637
1724940672.1913974,2.6,-0.023938322067260653,1724940672200966900,1724940672193391400,-1.0,0.0,1.0,3.5463173730931885e-07,-4.146680794292479e-07,-0.00014686216309200972,51.5718994140625,330.8496398925781,0.3052979111671448,8.564404561184347e-05,-0.13518992066383362,-0.1598510593175888,1724940672.1933916
1724940672.2396083,2.6500000000000004,-0.02214918136596644,1724940672243596700,1724940672236492100,-1.0,0.0,1.0,9.49187835885823e-07,-1.070600433195068e-06,-0.00040364277083426714,51.5718994140625,330.8496398925781,0.3052855432033539,8.564404561184347e-05,-0.13518992066383362,-0.1598510593175888,1724940672.2364922
1724940672.2909095,2.7,-0.023450422286987127,1724940672297422400,1724940672290909500,-1.0,0.0,1.0,2.44322038156497e-08,-3.112971214136451e-08,-7.056501544866478e-06,51.5718994140625,330.8496398925781,0.3052959740161896,8.564404561184347e-05,-0.13518992066383362,-0.1598510593175888,1724940672.2909095
1724940672.338489,2.75,-0.021029949188232422,1724940672340484900,1724940672342480000,-1.0,0.0,1.0,-1.825290951273928e-06,2.1581338387477444e-06,0.0007732583908364177,51.5718994140625,330.8496398925781,0.3053094148635864,8.564404561184347e-05,-0.13518992066383362,-0.1598510593175888,1724940672.34248
1724940672.3864489,2.8000000000000003,-0.018989753723144265,1724940672382948500,1724940672384943000,-1.0,0.0,1.0,6.459180923457097e-08,-3.041344243115418e-08,-2.89320287265582e-05,51.5718994140625,330.8496398925781,0.3053094148635864,8.564404561184347e-05,-0.13518992066383362,-0.1598510593175888,1724940672.3849432
1724940672.4224393,2.85,-0.00498023033142081,1724940672414590200,1724940672418450100,-1.0,0.0,1.0,-1.3364764583911892e-07,1.5444625489635655e-07,5.669144229614176e-05,51.5718994140625,330.8496398925781,0.305320680141449,8.564404561184347e-05,-0.13518992066383362,-0.1598510593175888,1724940672.4184504
1724940672.48347,2.9000000000000004,-0.016010856628417613,1724940672479481900,1724940672481474300,-1.0,0.0,1.0,-1.1326985713822069e-06,1.2935340691910824e-06,0.0004771525855176151,51.5718994140625,330.8496398925781,0.30530494451522827,8.564404561184347e-05,-0.13518992066383362,-0.1598510593175888,1724940672.4814744
1724940672.530724,2.95,-0.013264942169189275,1724940672532718900,1724940672534712300,-1.0,0.0,1.0,6.311994411589694e-07,-7.734909672763024e-07,-0.00026897835778072476,51.5718994140625,330.8496398925781,0.3052901327610016,8.564404561184347e-05,-0.13518992066383362,-0.1598510593175888,1724940672.5347123
1724940672.5790064,3.0,-0.011547327041625977,1724940672575588000,1724940672576584100,-1.0,0.0,1.0,-1.2460204743547365e-06,1.435327476428938e-06,0.0005283498321659863,51.5718994140625,330.8496398925781,0.3053007423877716,8.564404561184347e-05,-0.13518992066383362,-0.1598510593175888,1724940672.5765843
1724940672.628456,3.0500000000000003,-0.010997009277343484,1724940672629453600,1724940672629957200,-1.0,0.0,1.0,-1.2032177210130612e-07,1.7618076242342795e-07,4.960557635058649e-05,51.5718994140625,330.8496398925781,0.3052902817726135,8.564404561184347e-05,-0.13518992066383362,-0.1598510593175888,1724940672.6299572
1724940672.675535,3.1,-0.008075857162475497,1724940672673539500,1724940672672543800,-1.0,0.0,1.0,-1.5951828800098156e-06,1.856964559010521e-06,0.0006759769166819751,51.5718994140625,330.8496398925781,0.3053073287010193,8.564404561184347e-05,-0.13518992066383362,-0.1598510593175888,1724940672.6725438
1724940672.7254303,3.1500000000000004,-0.007971143722533824,1724940672727929700,1724940672726928900,-1.0,0.0,1.0,-1.4051438483875245e-06,1.6117072618726525e-06,0.00059547956334427,51.5718994140625,330.8496398925781,0.3053242862224579,8.564404561184347e-05,-0.13518992066383362,-0.1598510593175888,1724940672.726929
1724940672.7953732,3.2,-0.02791409492492658,1724940672804029600,1724940672800040700,-1.0,0.0,1.0,4.331964831294499e-08,-6.639564986699042e-08,-1.578183946548961e-05,51.5718994140625,330.8496398925781,0.305315226316452,8.564404561184347e-05,-0.13518992066383362,-0.1598510593175888,1724940672.8000407
1724940672.8412044,3.25,-0.023745298385620117,1724940672847978300,1724940672841204600,-1.0,0.0,1.0,1.4885439441059134e-06,-1.7818753121900954e-06,-0.0006273662438616157,51.5718994140625,330.8496398925781,0.3053031861782074,8.564404561184347e-05,-0.13518992066383362,-0.1598510593175888,1724940672.8412046
1724940672.8874235,3.3000000000000003,-0.019964408874511452,1724940672879919000,1724940672883906400,-1.0,0.0,1.0,1.1372194421710446e-06,-1.3238823157735169e-06,-0.0004784724733326584,51.5718994140625,330.8496398925781,0.30528920888900757,8.564404561184347e-05,-0.13518992066383362,-0.1598510593175888,1724940672.8839064
1724940672.9386115,3.35,-0.021152400970458896,1724940672943597700,1724940672936613800,-1.0,0.0,1.0,3.226306262149592e-07,-3.6845054296463786e-07,-0.00013432258856482804,51.5718994140625,330.8496398925781,0.30528563261032104,8.564404561184347e-05,-0.13518992066383362,-0.1598510593175888,1724940672.936614
1724940672.9840055,3.4000000000000004,-0.016546344757079723,1724940672986508600,1724940672979018900,-1.0,0.0,1.0,-1.3592417644758825e-06,1.556819370307494e-06,0.0005748770199716091,51.5718994140625,330.8496398925781,0.30529892444610596,8.564404561184347e-05,-0.13518992066383362,-0.1598510593175888,1724940672.9790192
1724940673.0343535,3.45,-0.01689438819885236,1724940673039974900,1724940673032358500,-1.0,0.0,1.0,-1.3061828951776988e-07,1.8866700202124775e-07,5.661456089001149e-05,51.5718994140625,330.8496398925781,0.30529382824897766,8.564404561184347e-05,-0.13518992066383362,-0.1598510593175888,1724940673.0323584
1724940673.0955083,3.5,-0.028049230575561523,1724940673095508300,1724940673097008600,-1.0,0.0,1.0,-1.0202892042343592e-07,7.469930096704047e-08,3.872540401061997e-05,51.5718994140625,330.8496398925781,0.3053072988986969,8.564404561184347e-05,-0.13518992066383362,-0.1598510593175888,1724940673.0970087
1724940673.1365912,3.5500000000000003,-0.019132089614867898,1724940673139605200,1724940673140602500,-1.0,0.0,1.0,-1.6303058600897202e-06,1.929095333252917e-06,0.0006908454815857112,51.5718994140625,330.8496398925781,0.30532366037368774,8.564404561184347e-05,-0.13518992066383362,-0.1598510593175888,1724940673.1406028
1724940673.1730697,3.6,-0.005610609054565341,1724940673171074100,1724940673172070700,-1.0,0.0,1.0,-1.119933656923422e-07,1.6130094593336253e-07,4.6363595174625516e-05,51.5718994140625,330.8496398925781,0.30532482266426086,8.564404561184347e-05,-0.13518992066383362,-0.1598510593175888,1724940673.1720707
1724940673.2195313,3.6500000000000004,-0.002072191238402965,1724940673214431200,1724940673215427300,-1.0,0.0,1.0,-1.5007701676950091e-06,1.7870099782157922e-06,0.0006396184908226132,51.5718994140625,330.8496398925781,0.30533286929130554,8.564404561184347e-05,-0.13518992066383362,-0.1598510593175888,1724940673.2154274
1724940673.2995942,3.7,-0.03213505744934064,1724940673299594300,1724940673298597500,-1.0,0.0,1.0,-1.0115123814102844e-06,1.200779820464959e-06,0.00042876609950326383,51.5718994140625,330.8496398925781,0.3053538501262665,8.564404561184347e-05,-0.13518992066383362,-0.1598510593175888,1724940673.2985976
1724940673.3215988,3.75,-0.00413966178894043,1724940673320601400,1724940673319604100,-1.0,0.0,1.0,6.199643962645496e-07,-6.938438446013606e-07,-0.0002637820434756577,51.5718994140625,330.8496398925781,0.3053470849990845,8.564404561184347e-05,-0.13518992066383362,-0.1598510593175888,1724940673.3196044
1724940673.382958,3.8000000000000003,-0.015498828887939187,1724940673384951100,1724940673383953700,-1.0,0.0,1.0,2.2571506974600197e-07,-2.2735497395842685e-07,-9.712832979857922e-05,51.5718994140625,330.8496398925781,0.3053499162197113,8.564404561184347e-05,-0.13518992066383362,-0.1598510593175888,1724940673.3839538
1724940673.4304078,3.85,-0.012948656082153231,1724940673428412300,1724940673426402200,-1.0,0.0,1.0,-6.956772153898783e-07,7.911473858257523e-07,0.0002975321840494871,51.5718994140625,330.8496398925781,0.3053472340106964,8.564404561184347e-05,-0.13518992066383362,-0.1598510593175888,1724940673.4264023
1724940673.4794066,3.9000000000000004,-0.011947488784789684,1724940673481402500,1724940673480403700,-1.0,0.0,1.0,6.715555400660378e-07,-7.66330970236595e-07,-0.00028258684324100614,51.5718994140625,330.8496398925781,0.30533367395401,8.564404561184347e-05,-0.13518992066383362,-0.1598510593175888,1724940673.480404
1724940673.5248978,3.95,-0.007438707351684393,1724940673523899200,1724940673521904000,-1.0,0.0,1.0,-7.610740340169286e-07,8.99217866390245e-07,0.00032638778793625534,51.5718994140625,330.8496398925781,0.30533599853515625,8.564404561184347e-05,-0.13518992066383362,-0.1598510593175888,1724940673.5219042
1724940673.57542,4.0,-0.007960796356201172,1724940673578921500,1724940673584905000,-1.0,0.0,1.0,4.1727184907358605e-07,-4.773836508320528e-07,-0.0001742495660437271,51.5718994140625,330.8496398925781,0.3053252696990967,8.564404561184347e-05,-0.13518992066383362,-0.1598510593175888,1724940673.5849051
1724940673.6205974,4.05,-0.0031382560729982245,1724940673620597300,1724940673617604800,-1.0,0.0,1.0,-8.22050935767038e-07,9.479977052251343e-07,0.00034800590947270393,51.5718994140625,330.8496398925781,0.30533379316329956,8.564404561184347e-05,-0.13518992066383362,-0.1598510593175888,1724940673.617605
1724940673.6765018,4.1000000000000005,-0.009042644500731889,1724940673686986700,1724940673681494500,-1.0,0.0,1.0,-1.7355043837596895e-06,2.036205614786013e-06,0.0007326315389946103,51.5718994140625,330.8496398925781,0.3053474724292755,8.564404561184347e-05,-0.13518992066383362,-0.1598510593175888,1724940673.6814947
1724940673.727262,4.15,-0.009802913665771129,1724940673729257100,1724940673723748500,-1.0,0.0,1.0,3.1017847845760116e-07,-3.8224465015446185e-07,-0.00012818133109249175,51.5718994140625,330.8496398925781,0.3053355813026428,8.564404561184347e-05,-0.13518992066383362,-0.1598510593175888,1724940673.7237487
1724940673.768644,4.2,-0.0011849880218504083,1724940673772635700,1724940673766373400,-1.0,0.0,1.0,-5.938264280302974e-07,6.829218364146072e-07,0.0002547107287682593,51.5718994140625,330.8496398925781,0.3053586781024933,8.564404561184347e-05,-0.13518992066383362,-0.1598510593175888,1724940673.7663734
1724940673.8310754,4.25,-0.013616323471069336,1724940673836590300,1724940673829568300,-1.0,0.0,1.0,-1.277042997571698e-06,1.4962440673116362e-06,0.0005439443048089743,51.5718994140625,330.8496398925781,0.3053560256958008,8.564404561184347e-05,-0.13518992066383362,-0.1598510593175888,1724940673.8295684
1724940673.8795092,4.3,-0.01205010414123553,1724940673890083300,1724940673882501600,-1.0,0.0,1.0,9.375619356433162e-07,-1.0855894743144745e-06,-0.0003964451316278428,51.5718994140625,330.8496398925781,0.30533599853515625,8.564404561184347e-05,-0.13518992066383362,-0.1598510593175888,1724940673.8825018
1724940673.9253995,4.3500000000000005,-0.007940435409545366,1724940673933395400,1724940673926396700,-1.0,0.0,1.0,6.210023570929479e-07,-7.043487357805134e-07,-0.00026973761850968003,51.5718994140625,330.8496398925781,0.3053363859653473,8.564404561184347e-05,-0.13518992066383362,-0.1598510593175888,1724940673.9263968
1724940673.983897,4.4,-0.016437864303588512,1724940673977910700,1724940673979907700,-1.0,0.0,1.0,-1.3207829852035502e-06,1.5301993698813021e-06,0.00056288210907951,51.5718994140625,330.8496398925781,0.30533716082572937,8.564404561184347e-05,-0.13518992066383362,-0.1598510593175888,1724940673.9799078
1724940674.0514252,4.45,-0.03396611213684064,1724940674053419900,1724940674053419900,-1.0,0.0,1.0,0.0,0.0,0.0,51.5718994140625,330.8496398925781,0.3053301274776459,8.564404561184347e-05,-0.13518992066383362,-0.1598510593175888,1724940674.0534198
1724940674.0803995,4.5,-0.012940406799316406,1724940674087979800,1724940674085386500,-1.0,0.0,1.0,-1.6265094018308446e-06,1.9325141238368815e-06,0.0006862967857159674,51.5718994140625,330.8496398925781,0.3053416311740875,8.564404561184347e-05,-0.13518992066383362,-0.1598510593175888,1724940674.0853865
1724940674.135086,4.55,-0.017626953125000178,1724940674140921600,1724940674139924800,-1.0,0.0,1.0,-1.5012360563559923e-06,1.7937096572495648e-06,0.0006336537771858275,51.5718994140625,330.8496398925781,0.30534595251083374,8.564404561184347e-05,-0.13518992066383362,-0.1598510593175888,1724940674.1399248
1724940674.1839418,4.6000000000000005,-0.01648273468017525,1724940674182944200,1724940674181946800,-1.0,0.0,1.0,5.376944613999513e-07,-6.753107300028205e-07,-0.0002319084305781871,51.5718994140625,330.8496398925781,0.3053399622440338,8.564404561184347e-05,-0.13518992066383362,-0.1598510593175888,1724940674.181947
1724940674.2309768,4.65,-0.013517713546752574,1724940674237495400,1724940674233984600,-1.0,0.0,1.0,1.245722160092555e-06,-1.4491166666630306e-06,-0.0005275814328342676,51.5718994140625,330.8496398925781,0.30532824993133545,8.564404561184347e-05,-0.13518992066383362,-0.1598510593175888,1724940674.2339847
1724940674.281551,4.7,-0.014091777801513494,1724940674281550800,1724940674276527900,-1.0,0.0,1.0,2.7836148319693166e-07,-3.1348272955256107e-07,-0.00011627608182607219,51.5718994140625,330.8496398925781,0.30532515048980713,8.564404561184347e-05,-0.13518992066383362,-0.1598510593175888,1724940674.276528
1724940674.3438945,4.75,-0.026435375213623047,1724940674346398300,1724940674340902200,-1.0,0.0,1.0,4.725833377960953e-07,-5.372157829697244e-07,-0.00020221821614541113,51.5718994140625,330.8496398925781,0.30532220005989075,8.564404561184347e-05,-0.13518992066383362,-0.1598510593175888,1724940674.3409023
1724940674.3745792,4.800000000000001,-0.007120084762572532,1724940674368593200,1724940674372585700,-1.0,0.0,1.0,3.4991603570233565e-07,-4.022149369120598e-07,-0.00014634734543506056,51.5718994140625,330.8496398925781,0.305318146944046,8.564404561184347e-05,-0.13518992066383362,-0.1598510593175888,1724940674.3725858
1724940674.4234672,4.8500000000000005,-0.0060080528259272015,1724940674422467500,1724940674426459000,-1.0,0.0,1.0,3.9258580386558606e-07,-4.5895652078797866e-07,-0.0001642749411985278,51.5718994140625,330.8496398925781,0.30532485246658325,8.564404561184347e-05,-0.13518992066383362,-0.1598510593175888,1724940674.426459
1724940674.4694421,4.9,-0.0019830226898189807,1724940674475426300,1724940674467444800,-1.0,0.0,1.0,-1.1828917649836512e-06,1.381894890073454e-06,0.0005048356833867729,51.5718994140625,330.8496398925781,0.30533677339553833,8.564404561184347e-05,-0.13518992066383362,-0.1598510593175888,1724940674.467445
1724940674.5208175,4.95,-0.003358411788940252,1724940674528417100,1724940674519820200,-1.0,0.0,1.0,4.411936345150025e-07,-5.399711540121643e-07,-0.0001872844877652824,51.5718994140625,330.8496398925781,0.3053252696990967,8.564404561184347e-05,-0.13518992066383362,-0.1598510593175888,1724940674.5198205
1724940674.5915353,5.0,-0.024076223373413086,1724940674602108900,1724940674594527900,-1.0,0.0,1.0,6.930717404429743e-07,-7.828185175640101e-07,-0.0002952880458906293,51.5718994140625,330.8496398925781,0.30533069372177124,8.564404561184347e-05,-0.13518992066383362,-0.1598510593175888,1724940674.5945282
1724940674.6387339,5.050000000000001,-0.021274757385253196,1724940674643719600,1724940674636619800,-1.0,0.0,1.0,3.491404925171082e-07,-3.821936616077437e-07,-0.00014549418119713664,51.5718994140625,330.8496398925781,0.3053392767906189,8.564404561184347e-05,-0.13518992066383362,-0.1598510593175888,1724940674.6366198
1724940674.6849234,5.1000000000000005,-0.01746430397033638,1724940674696930900,1724940674689446100,-1.0,0.0,1.0,-1.1844899745483417e-06,1.3858648344466928e-06,0.0005015836795791984,51.5718994140625,330.8496398925781,0.3053417205810547,8.564404561184347e-05,-0.13518992066383362,-0.1598510593175888,1724940674.6894462
1724940674.7336035,5.15,-0.01614437103271449,1724940674729082800,1724940674731587900,-1.0,0.0,1.0,6.626759159189533e-07,-7.897713203419698e-07,-0.0002786769182421267,51.5718994140625,330.8496398925781,0.30533427000045776,8.564404561184347e-05,-0.13518992066383362,-0.1598510593175888,1724940674.731588
1724940674.7923872,5.2,-0.02492814064025861,1724940674794382900,1724940674795379600,-1.0,0.0,1.0,-1.3012094086661818e-06,1.5273683402483584e-06,0.0005514189251698554,51.5718994140625,330.8496398925781,0.3053356111049652,8.564404561184347e-05,-0.13518992066383362,-0.1598510593175888,1724940674.7953799
1724940674.8226228,5.25,-0.005163669586181641,1724940674816512800,1724940674817636000,-1.0,0.0,1.0,1.5972899802818574e-07,-1.7451208123020479e-07,-6.905919872224331e-05,51.5718994140625,330.8496398925781,0.3053338825702667,8.564404561184347e-05,-0.13518992066383362,-0.1598510593175888,1724940674.8176363
1724940674.8929718,5.300000000000001,-0.02551264762878347,1724940674890977200,1724940674891974400,-1.0,0.0,1.0,8.777029592010877e-08,-1.0189256727244356e-07,-3.734248093678616e-05,51.5718994140625,330.8496398925781,0.3053242862224579,8.564404561184347e-05,-0.13518992066383362,-0.1598510593175888,1724940674.8919744
1724940674.9254525,5.3500000000000005,-0.007993364334105912,1724940674923457800,1724940674923457800,-1.0,0.0,1.0,-1.9082060589425964e-06,2.2333406377583742e-06,0.0008101751445792615,51.5718994140625,330.8496398925781,0.3053504526615143,8.564404561184347e-05,-0.13518992066383362,-0.1598510593175888,1724940674.9234579
1724940674.972133,5.4,-0.004673814773559215,1724940674978918400,1724940674976630800,-1.0,0.0,1.0,4.825909627470537e-07,-5.748718763243232e-07,-0.00020502167171798646,51.5718994140625,330.8496398925781,0.3053402304649353,8.564404561184347e-05,-0.13518992066383362,-0.1598510593175888,1724940674.976631
1724940675.0305607,5.45,-0.013101625442504705,1724940675033062500,1724940675029563900,-1.0,0.0,1.0,-1.0311268852092326e-06,1.2243178844073555e-06,0.00043699570233002305,51.5718994140625,330.8496398925781,0.3053451478481293,8.564404561184347e-05,-0.13518992066383362,-0.1598510593175888,1724940675.029564
1724940675.0829651,5.5,-0.01550602912902832,1724940675086465600,1724940675081969400,-1.0,0.0,1.0,8.975811169875669e-07,-1.033885723700223e-06,-0.00038660355494357646,51.5718994140625,330.8496398925781,0.30533161759376526,8.564404561184347e-05,-0.13518992066383362,-0.1598510593175888,1724940675.0819695
1724940675.1397772,5.550000000000001,-0.022318077087401633,1724940675150435300,1724940675144765500,-1.0,0.0,1.0,4.776070454681758e-07,-5.246994874141819e-07,-0.00020459761435631663,51.5718994140625,330.8496398925781,0.3053317964076996,8.564404561184347e-05,-0.13518992066383362,-0.1598510593175888,1724940675.1447656
1724940675.1869466,5.6000000000000005,-0.01948752403259224,1724940675192037200,1724940675186946500,-1.0,0.0,1.0,7.588322432638961e-07,-8.988409945231979e-07,-0.00032002441002987325,51.5718994140625,330.8496398925781,0.30533090233802795,8.564404561184347e-05,-0.13518992066383362,-0.1598510593175888,1724940675.1869466
1724940675.237608,5.65,-0.020148849487304332,1724940675247090600,1724940675240602400,-1.0,0.0,1.0,-1.4925673212928814e-06,1.7335643178739701e-06,0.0006321036489680409,51.5718994140625,330.8496398925781,0.30533352494239807,8.564404561184347e-05,-0.13518992066383362,-0.1598510593175888,1724940675.2406025
1724940675.2684076,5.7,-0.0009484767913816583,1724940675280961100,1724940675273394600,-1.0,0.0,1.0,-1.1620724080785294e-06,1.3885161251891986e-06,0.0004913760349154472,51.5718994140625,330.8496398925781,0.30534496903419495,8.564404561184347e-05,-0.13518992066383362,-0.1598510593175888,1724940675.2733948
1724940675.3448732,5.75,-0.02741408348083496,1724940675354817600,1724940675346379500,-1.0,0.0,1.0,-1.9966969375673216e-06,2.3485795281885657e-06,0.0008437211508862674,51.5718994140625,330.8496398925781,0.3053491413593292,8.564404561184347e-05,-0.13518992066383362,-0.1598510593175888,1724940675.3463795
1724940675.3754985,5.800000000000001,-0.008039426803588157,1724940675376494700,1724940675378437400,-1.0,0.0,1.0,1.7916981676080468e-07,-1.8877167917707993e-07,-7.530990842496976e-05,51.5718994140625,330.8496398925781,0.30535396933555603,8.564404561184347e-05,-0.13518992066383362,-0.1598510593175888,1724940675.3784375
1724940675.4214423,5.8500000000000005,-0.003983163833617631,1724940675421442300,1724940675422439400,-1.0,0.0,1.0,8.961343382907216e-07,-1.04592277239135e-06,-0.00037995775346644223,51.5718994140625,330.8496398925781,0.30535727739334106,8.564404561184347e-05,-0.13518992066383362,-0.1598510593175888,1724940675.4224396
1724940675.468492,5.9,-0.001032924652099254,1724940675464968900,1724940675464968900,-1.0,0.0,1.0,1.0322593197997776e-06,-1.1786454479079111e-06,-0.0004411966656334698,51.5718994140625,330.8496398925781,0.3053453862667084,8.564404561184347e-05,-0.13518992066383362,-0.1598510593175888,1724940675.4649692
1724940675.5395439,5.95,-0.022084760665893377,1724940675541537400,1724940675541537400,-1.0,0.0,1.0,1.1212804338356364e-06,-1.3206322364567313e-06,-0.0004738950519822538,51.5718994140625,330.8496398925781,0.30533668398857117,8.564404561184347e-05,-0.13518992066383362,-0.1598510593175888,1724940675.5415373
1724940675.5731168,6.0,-0.005657672882080078,1724940675574112700,1724940675573116700,-1.0,0.0,1.0,-5.755877054980374e-07,6.618358270316094e-07,0.0002468005404807627,51.5718994140625,330.8496398925781,0.3053428530693054,8.564404561184347e-05,-0.13518992066383362,-0.1598510593175888,1724940675.5731168
1724940675.6186278,6.050000000000001,-0.0011686801910393285,1724940675618627800,1724940675615039900,-1.0,0.0,1.0,1.823099978537357e-06,-2.1480545910890214e-06,-0.0007713911472819746,51.5718994140625,330.8496398925781,0.3053148686885834,8.564404561184347e-05,-0.13518992066383362,-0.1598510593175888,1724940675.61504
1724940675.6694841,6.1000000000000005,-0.0020250320434564983,1724940675673472700,1724940675668486800,-1.0,0.0,1.0,-6.027312338119373e-07,7.235768180180457e-07,0.0002548562770243734,51.5718994140625,330.8496398925781,0.305290549993515,8.564404561184347e-05,-0.13518992066383362,-0.1598510593175888,1724940675.668487
1724940675.724894,6.15,-0.00743494033813441,1724940675728449200,1724940675722899200,-1.0,0.0,1.0,-2.795475211314624e-07,3.165500288559997e-07,0.00011911422916455194,51.5718994140625,330.8496398925781,0.305294930934906,8.564404561184347e-05,-0.13518992066383362,-0.1598510593175888,1724940675.7228992
1724940675.7814898,6.2,-0.014030742645263494,1724940675780486700,1724940675776480700,-1.0,0.0,1.0,9.135203526966507e-07,-1.0430181873744004e-06,-0.00038781127659603953,51.5718994140625,330.8496398925781,0.3052865266799927,8.564404561184347e-05,-0.13518992066383362,-0.1598510593175888,1724940675.776481
1724940675.8284073,6.25,-0.01094818115234375,1724940675832900300,1724940675829404000,-1.0,0.0,1.0,1.6096500132789515e-07,-2.403479300028266e-07,-6.913047400303185e-05,51.5718994140625,330.8496398925781,0.30528587102890015,8.564404561184347e-05,-0.13518992066383362,-0.1598510593175888,1724940675.829404
1724940675.9085371,6.300000000000001,-0.04107804298400808,1724940675907539600,1724940675904518400,-1.0,0.0,1.0,-5.16602085554041e-07,6.613756227125123e-07,0.00021348086011130363,51.5718994140625,330.8496398925781,0.3052991032600403,8.564404561184347e-05,-0.13518992066383362,-0.1598510593175888,1724940675.9045186
1724940675.92982,6.3500000000000005,-0.012360954284667436,1724940675928821200,1724940675924937800,-1.0,0.0,1.0,1.6646825429234013e-07,-2.3222798972710734e-07,-7.255859236465767e-05,51.5718994140625,330.8496398925781,0.3052966892719269,8.564404561184347e-05,-0.13518992066383362,-0.1598510593175888,1724940675.9249377
1724940675.974896,6.4,-0.007436847686767223,1724940675983499100,1724940675979509700,-1.0,0.0,1.0,4.689427726134454e-07,-5.535387685995374e-07,-0.00019687798339873552,51.5718994140625,330.8496398925781,0.3053058981895447,8.564404561184347e-05,-0.13518992066383362,-0.1598510593175888,1724940675.9795098
1724940676.0369275,6.45,-0.01946835517883283,1724940676036927400,1724940676032434300,-1.0,0.0,1.0,5.150771471562621e-07,-6.093202955526067e-07,-0.00021582545014098287,51.5718994140625,330.8496398925781,0.30530157685279846,8.564404561184347e-05,-0.13518992066383362,-0.1598510593175888,1724940676.0324342
1724940676.0886238,6.5,-0.021164655685424805,1724940676079626600,1724940676087626900,-1.0,0.0,1.0,1.126975064380531e-07,-1.4253602387270803e-07,-4.936259574606083e-05,51.5718994140625,330.8496398925781,0.3053130507469177,8.564404561184347e-05,-0.13518992066383362,-0.1598510593175888,1724940676.0876272
1724940676.1335034,6.550000000000001,-0.016044330596923118,1724940676123499000,1724940676130419500,-1.0,0.0,1.0,-1.2617488209798466e-07,1.1581708747598896e-07,5.7511737395543605e-05,51.5718994140625,330.8496398925781,0.3053184151649475,8.564404561184347e-05,-0.13518992066383362,-0.1598510593175888,1724940676.1304195
1724940676.17949,6.6000000000000005,-0.012030982971190873,1724940676178492100,1724940676183480000,-1.0,0.0,1.0,-1.0796165952342562e-06,1.2628444210349699e-06,0.00045831454917788506,51.5718994140625,330.8496398925781,0.30530327558517456,8.564404561184347e-05,-0.13518992066383362,-0.1598510593175888,1724940676.1834803
1724940676.2295363,6.65,-0.012077188491820934,1724940676221453200,1724940676226440000,-1.0,0.0,1.0,7.576529128527909e-07,-8.928493002713367e-07,-0.00032246566843241453,51.5718994140625,330.8496398925781,0.30529388785362244,8.564404561184347e-05,-0.13518992066383362,-0.1598510593175888,1724940676.22644
1724940676.2753887,6.7,-0.00792961120605451,1724940676274391800,1724940676279430900,-1.0,0.0,1.0,-1.6880944713193458e-06,2.0066468096047174e-06,0.0007117000641301274,51.5718994140625,330.8496398925781,0.30530163645744324,8.564404561184347e-05,-0.13518992066383362,-0.1598510593175888,1724940676.279431
1724940676.323946,6.75,-0.0064868927001953125,1724940676316902500,1724940676321952500,-1.0,0.0,1.0,-4.596373770482387e-08,3.614692545284015e-08,2.3272497855941765e-05,51.5718994140625,330.8496398925781,0.30530163645744324,8.564404561184347e-05,-0.13518992066383362,-0.1598510593175888,1724940676.3219526
1724940676.369527,6.800000000000001,-0.0020679950714104223,1724940676369527100,1724940676374513500,-1.0,0.0,1.0,-1.0389461380100329e-07,1.0290806073953718e-07,4.392253322293982e-05,51.5718994140625,330.8496398925781,0.30531740188598633,8.564404561184347e-05,-0.13518992066383362,-0.1598510593175888,1724940676.3745136
1724940676.4399104,6.8500000000000005,-0.022451305389403764,1724940676431962300,1724940676437913000,-1.0,0.0,1.0,-1.2526767250164994e-06,1.448771058676357e-06,0.0005308114923536777,51.5718994140625,330.8496398925781,0.3053244352340698,8.564404561184347e-05,-0.13518992066383362,-0.1598510593175888,1724940676.4379132
1724940676.4888484,6.9,-0.021389341354369762,1724940676486592900,1724940676490844200,-1.0,0.0,1.0,1.1175342251590337e-07,-9.476197959656929e-08,-5.287201202008873e-05,51.5718994140625,330.8496398925781,0.305315762758255,8.564404561184347e-05,-0.13518992066383362,-0.1598510593175888,1724940676.4908442
1724940676.5345926,6.95,-0.01713352203369123,1724940676530585700,1724940676533595200,-1.0,0.0,1.0,0.0,0.0,0.0,51.5718994140625,330.8496398925781,0.305315762758255,8.564404561184347e-05,-0.13518992066383362,-0.1598510593175888,1724940676.5335953
1724940676.5819137,7.0,-0.01445460319519043,1724940676583908700,1724940676586412100,-1.0,0.0,1.0,-1.15663499400398e-06,1.32878165004513e-06,0.0004916621255688369,51.5718994140625,330.8496398925781,0.3053159713745117,8.564404561184347e-05,-0.13518992066383362,-0.1598510593175888,1724940676.5864122
1724940676.6308515,7.050000000000001,-0.013392400741576438,1724940676628857300,1724940676628857300,-1.0,0.0,1.0,-1.3953918198694737e-07,1.6421820703271806e-07,5.6104559917002916e-05,51.5718994140625,330.8496398925781,0.30530309677124023,8.564404561184347e-05,-0.13518992066383362,-0.1598510593175888,1724940676.6288574
1724940676.6864583,7.1000000000000005,-0.01899924278259224,1724940676681868300,1724940676681868300,-1.0,0.0,1.0,1.5775388817473868e-07,-1.954979182983152e-07,-6.594560545636341e-05,51.5718994140625,330.8496398925781,0.30531471967697144,8.564404561184347e-05,-0.13518992066383362,-0.1598510593175888,1724940676.6818683
1724940676.7180064,7.15,-0.0005472660064693713,1724940676703568600,1724940676713022900,-1.0,0.0,1.0,4.519900471677829e-07,-4.954987389282905e-07,-0.0001907275291159749,51.5718994140625,330.8496398925781,0.3053092956542969,8.564404561184347e-05,-0.13518992066383362,-0.1598510593175888,1724940676.7130232
1724940676.7694983,7.2,-0.0020392417907713067,1724940676757995100,1724940676766485800,-1.0,0.0,1.0,-1.582252934895223e-06,1.82500343726133e-06,0.0006695331539958715,51.5718994140625,330.8496398925781,0.30532556772232056,8.564404561184347e-05,-0.13518992066383362,-0.1598510593175888,1724940676.766486
1724940676.8248582,7.25,-0.007399082183837891,1724940676822863300,1724940676819871100,-1.0,0.0,1.0,-1.481881781728589e-06,1.749611328705214e-06,0.0006231923471204937,51.5718994140625,330.8496398925781,0.30532756447792053,8.564404561184347e-05,-0.13518992066383362,-0.1598510593175888,1724940676.8198712
1724940676.886492,7.300000000000001,-0.019032907485961204,1724940676888490700,1724940676884906100,-1.0,0.0,1.0,-1.7497874296168447e-06,2.0389759356476134e-06,0.0007450361736118793,51.5718994140625,330.8496398925781,0.3053353726863861,8.564404561184347e-05,-0.13518992066383362,-0.1598510593175888,1724940676.884906
1724940676.9329247,7.3500000000000005,-0.015465641021727983,1724940676931907700,1724940676929401800,-1.0,0.0,1.0,3.7005091257924505e-07,-4.225226746257249e-07,-0.00015442469157278538,51.5718994140625,330.8496398925781,0.30533134937286377,8.564404561184347e-05,-0.13518992066383362,-0.1598510593175888,1724940676.9294019
1724940676.978415,7.4,-0.010955905914306285,1724940676984399100,1724940676982411000,-1.0,0.0,1.0,-1.684608037066937e-06,1.978137788682943e-06,0.0007112288731150329,51.5718994140625,330.8496398925781,0.3053435683250427,8.564404561184347e-05,-0.13518992066383362,-0.1598510593175888,1724940676.9824111
1724940677.027414,7.45,-0.009954977035522283,1724940677027414000,1724940677023891500,-1.0,0.0,1.0,9.513341581168788e-08,-1.0089786428579828e-07,-4.058968261233531e-05,51.5718994140625,330.8496398925781,0.3053435683250427,8.564404561184347e-05,-0.13518992066383362,-0.1598510593175888,1724940677.0238914
1724940677.0729249,7.5,-0.00546574592590332,1724940677082486300,1724940677076423000,-1.0,0.0,1.0,4.646608999792079e-07,-5.329587793312385e-07,-0.00019792746752500534,51.5718994140625,330.8496398925781,0.30534225702285767,8.564404561184347e-05,-0.13518992066383362,-0.1598510593175888,1724940677.076423
1724940677.1254044,7.550000000000001,-0.00794525146484304,1724940677134587400,1724940677129094300,-1.0,0.0,1.0,-1.444147301299381e-06,1.6594955241089338e-06,0.0006165041704662144,51.5718994140625,330.8496398925781,0.3053480386734009,8.564404561184347e-05,-0.13518992066383362,-0.1598510593175888,1724940677.1290946
1724940677.1829035,7.6000000000000005,-0.015444421768187944,1724940677189412600,1724940677181906200,-1.0,0.0,1.0,5.482254437083611e-07,-6.139499078017252e-07,-0.00023348192917183042,51.5718994140625,330.8496398925781,0.3053312599658966,8.564404561184347e-05,-0.13518992066383362,-0.1598510593175888,1724940677.1819062
1724940677.2365344,7.65,-0.019075250625609996,1724940677242537800,1724940677234029300,-1.0,0.0,1.0,2.438072215227294e-07,-2.9983667104716005e-07,-0.00010070887219626456,51.5718994140625,330.8496398925781,0.3053375482559204,8.564404561184347e-05,-0.13518992066383362,-0.1598510593175888,1724940677.2340295
1724940677.2869546,7.7,-0.01949553489685041,1724940677285450300,1724940677285450300,-1.0,0.0,1.0,-6.1630186110051e-07,7.613337515977037e-07,0.00025992648443207145,51.5718994140625,330.8496398925781,0.3053329586982727,8.564404561184347e-05,-0.13518992066383362,-0.1598510593175888,1724940677.2854505
1724940677.3329477,7.75,-0.015488624572753906,1724940677330429100,1724940677329431900,-1.0,0.0,1.0,4.4198705495546164e-07,-5.018653723709576e-07,-0.00018536856805440038,51.5718994140625,330.8496398925781,0.30532801151275635,8.564404561184347e-05,-0.13518992066383362,-0.1598510593175888,1724940677.329432
1724940677.3787994,7.800000000000001,-0.01134033203124929,1724940677383786800,1724940677381791800,-1.0,0.0,1.0,-2.5974071604650817e-07,2.9848260396647674e-07,0.0001100732697523199,51.5718994140625,330.8496398925781,0.30534088611602783,8.564404561184347e-05,-0.13518992066383362,-0.1598510593175888,1724940677.3817918
1724940677.4384143,7.8500000000000005,-0.02095522880554146,1724940677439411700,1724940677434306100,-1.0,0.0,1.0,7.257183369802078e-07,-8.811278462417249e-07,-0.00031246207072399557,51.5718994140625,330.8496398925781,0.3053303062915802,8.564404561184347e-05,-0.13518992066383362,-0.1598510593175888,1724940677.4343061
1724940677.470413,7.9,-0.002953863143920543,1724940677471409700,1724940677466376000,-1.0,0.0,1.0,-1.4822935554548167e-06,1.7515226318209898e-06,0.0006294099148362875,51.5718994140625,330.8496398925781,0.30534490942955017,8.564404561184347e-05,-0.13518992066383362,-0.1598510593175888,1724940677.466376
1724940677.5185246,7.95,-0.0010655403137205255,1724940677513943700,1724940677508957100,-1.0,0.0,1.0,-8.224436669479473e-07,9.792519222173723e-07,0.0003484066401142627,51.5718994140625,330.8496398925781,0.30534523725509644,8.564404561184347e-05,-0.13518992066383362,-0.1598510593175888,1724940677.5089574
1724940677.5690155,8.0,-0.001556396484375,1724940677579901000,1724940677574003000,-1.0,0.0,1.0,7.794279213158006e-07,-8.917100444705284e-07,-0.000331963412463665,51.5718994140625,330.8496398925781,0.30532902479171753,8.564404561184347e-05,-0.13518992066383362,-0.1598510593175888,1724940677.574003
1724940677.6387377,8.05,-0.02127857208251882,1724940677646227800,1724940677638737700,-1.0,0.0,1.0,5.325208576323348e-07,-6.02252328008035e-07,-0.0002314937300980091,51.5718994140625,330.8496398925781,0.30532991886138916,8.564404561184347e-05,-0.13518992066383362,-0.1598510593175888,1724940677.6387377
1724940677.6834607,8.1,-0.016001605987549183,1724940677689125300,1724940677680469100,-1.0,0.0,1.0,3.6004050230076245e-07,-4.1949863316403935e-07,-0.00015429577615577728,51.5718994140625,330.8496398925781,0.30532580614089966,8.564404561184347e-05,-0.13518992066383362,-0.1598510593175888,1724940677.680469
1724940677.7321675,8.15,-0.014708375930785778,1724940677732167300,1724940677733532500,-1.0,0.0,1.0,5.586143743130378e-07,-6.367034757204237e-07,-0.00023822591174393892,51.5718994140625,330.8496398925781,0.30532580614089966,8.564404561184347e-05,-0.13518992066383362,-0.1598510593175888,1724940677.7335324
1724940677.778419,8.200000000000001,-0.010959911346434481,1724940677776404900,1724940677776404900,-1.0,0.0,1.0,-9.371532883051259e-08,1.0183861576251729e-07,4.3908592488151044e-05,51.5718994140625,330.8496398925781,0.30533018708229065,8.564404561184347e-05,-0.13518992066383362,-0.1598510593175888,1724940677.776405
1724940677.8417146,8.25,-0.02425551414489746,1724940677842711800,1724940677840717100,-1.0,0.0,1.0,-1.0066030426969519e-06,1.185440964945883e-06,0.0004232081410009414,51.5718994140625,330.8496398925781,0.30531635880470276,8.564404561184347e-05,-0.13518992066383362,-0.1598510593175888,1724940677.840717
1724940677.871385,8.3,-0.003925991058348899,1724940677875374700,1724940677872381500,0.0,-0.0235294122248888,0.0196078438311815,3.53238277739365e-07,-4.30099333925682e-07,-0.00015029081259854138,51.5718994140625,330.8496398925781,0.3053063452243805,8.564404561184347e-05,-0.13518992066383362,-0.1598510593175888,1724940677.8723814
1724940677.9415522,8.35,-0.02409305572509801,1724940677950419200,1724940677945541100,0.0,-0.0235294122248888,0.1647058874368667,5.460980219140765e-07,-6.113733093116025e-07,-0.0002358895872021094,51.5718994140625,330.8496398925781,0.30530643463134766,8.564404561184347e-05,-0.13518992066383362,-0.1598510593175888,1724940677.9455411
1724940677.9908974,8.4,-0.02343831062316859,1724940677992893500,1724940677988902900,0.0,-0.0235294122248888,0.3529411852359772,0.05820449814200401,-0.00011012447794200853,0.0006656265468336642,51.57417678833008,330.8496398925781,0.3053463399410248,0.00015330671158153564,-0.13821570575237274,-0.1597900092601776,1724940677.988903
1724940678.0376146,8.450000000000001,-0.020155477523802645,1724940678044596500,1724940678041603800,0.0,-0.0235294122248888,0.5607843399047852,0.062240369617938995,-0.00011841270315926522,3.533107155817561e-05,51.57669448852539,330.8496398925781,0.3053554892539978,0.0001599182141944766,-0.1398344486951828,-0.1597900241613388,1724940678.041604
1724940678.0875437,8.5,-0.020084619522094727,1724940678087543700,1724940678084407700,0.0,-0.0235294122248888,0.5843137502670288,0.2642202079296112,-0.00016949017299339175,0.0005385515978559852,51.58447265625,330.8496398925781,0.3054526746273041,0.0014601513976231217,-0.14816728234291077,-0.159759521484375,1724940678.0844078
1724940678.1334474,8.55,-0.01598830223083425,1724940678139990700,1724940678136943200,0.0,-0.0235294122248888,0.615686297416687,0.4500158727169037,-0.0006968090892769396,0.0010478608310222626,51.60236740112305,330.8497619628906,0.3056063652038574,-0.007781981956213713,-0.1639108657836914,-0.15985107421875,1724940678.136943
1724940678.1869416,8.6,-0.019482517242431996,1724940678191996700,1724940678189004300,0.0,-0.0235294122248888,0.6470588445663452,0.576881468296051,-0.0009898236021399498,0.0019050941336899996,51.62674331665039,330.8497314453125,0.3057892620563507,-0.006378173828125,-0.179804727435112,-0.1597289890050888,1724940678.1890044
1724940678.2484822,8.65,-0.031023120880126598,1724940678254464700,1724940678253468300,0.0,-0.0235294122248888,0.6823529601097107,0.9133501052856445,-0.0012535031419247389,0.0031714721117168665,51.67940902709961,330.84954833984375,0.3060377836227417,0.007833550684154034,-0.20288392901420593,-0.1596984565258026,1724940678.2534685
1724940678.2729034,8.700000000000001,-0.005444335937498934,1724940678276404000,1724940678273899400,0.0,-0.0235294122248888,0.6980392336845398,1.0436874628067017,-0.001239775330759585,0.0035900871735066175,51.70446014404297,330.8496398925781,0.3061303496360779,0.001579495146870613,-0.21249400079250336,-0.1596984565258026,1724940678.2738996
1724940678.324937,8.75,-0.007477998733520508,1724940678329590600,1724940678329590600,0.0,-0.0235294122248888,0.7333333492279053,1.2016358375549316,-0.0013524778187274933,0.004308236297219992,51.758811950683594,330.8496398925781,0.3062802255153656,0.002023532288148999,-0.22698765993118286,-0.1594848483800888,1724940678.3295906
1724940678.3814216,8.8,-0.013962459564208274,1724940678382418200,1724940678382418200,0.0,-0.0235294122248888,0.772549033164978,1.4490822553634644,-0.001708072959445417,0.006618409883230925,51.81928253173828,330.8496398925781,0.30639252066612244,0.0023483193945139647,-0.23663188517093658,-0.1593932807445526,1724940678.3824184
1724940678.4344118,8.85,-0.016952657699585316,1724940678435407900,1724940678435407900,0.0,-0.0235294122248888,1.0,1.7847791910171509,-0.0021377417724579573,0.007636008784174919,51.93135452270508,330.8496398925781,0.30656033754348755,0.0024384325370192528,-0.2523481547832489,-0.1593322604894638,1724940678.4354079
1724940678.4903893,8.9,-0.02293024063110316,1724940678488395100,1724940678488395100,0.0,0.0235294122248888,1.0,2.052999258041382,-0.0024817308876663446,0.009192469529807568,52.01830291748047,330.8496398925781,0.30666065216064453,0.0015840448904782534,-0.26150745153427124,-0.159332275390625,1724940678.4883952
1724940678.5479083,8.950000000000001,-0.030449199676512606,1724940678551899700,1724940678551899700,0.0,0.0235294122248888,1.0,2.443189859390259,0.00240054982714355,0.011462690308690071,52.1773681640625,330.84967041015625,0.30678465962409973,0.007447002921253443,-0.274081826210022,-0.1580200046300888,1724940678.5518997
1724940678.5745802,9.0,-0.007121086120605469,1724940678573582200,1724940678573582200,0.0,0.0705882385373115,1.0,2.443189859390259,0.00240054982714355,0.011462690308690071,52.1773681640625,330.84967041015625,0.30678465962409973,0.007447002921253443,-0.274081826210022,-0.1580200046300888,1724940678.5735822
1724940678.631453,9.05,-0.01399393081664968,1724940678627463000,1724940678627463000,0.0,0.0705882385373115,1.0,2.8154139518737793,0.007940045557916164,0.014127044007182121,52.357322692871094,330.8499450683594,0.30687472224235535,0.020948998630046844,-0.28210046887397766,-0.1566161960363388,1724940678.627463
1724940678.6946225,9.1,-0.027163410186767933,1724940678690633300,1724940678690633300,0.0,0.0705882385373115,1.0,3.1944968700408936,0.01030660793185234,0.016268165782094002,52.56800842285156,330.8503723144531,0.30691882967948914,0.04520318657159805,-0.2865605652332306,-0.1554565578699112,1724940678.6906333
1724940678.7275834,9.15,-0.010124301910400035,1724940678722523800,1724940678723521100,0.0,0.0705882385373115,1.0,3.323528289794922,0.01070426870137453,0.01645531691610813,52.64608383178711,330.85064697265625,0.3069226145744324,0.05473831295967102,-0.28735285997390747,-0.1553650051355362,1724940678.7235212
1724940678.7813876,9.200000000000001,-0.013928461074828036,1724940678774879200,1724940678776385900,0.0,0.0705882385373115,1.0,3.5774669647216797,0.01136964000761509,0.018348880112171173,52.80917739868164,330.85113525390625,0.3069286346435547,0.07489625364542007,-0.28820663690567017,-0.155364990234375,1724940678.7763858
1724940678.83995,9.25,-0.022490978240966797,1724940678838952800,1724940678838952800,0.0,0.0705882385373115,1.0,3.9494407176971436,0.012244243174791336,0.020572375506162643,53.070960998535156,330.8520202636719,0.3069312274456024,0.1073763445019722,-0.2880563735961914,-0.1555175930261612,1724940678.8389528
1724940678.8729477,9.3,-0.0054885864257805395,1724940678870951800,1724940678870951800,0.0,0.0705882385373115,1.0,4.0796027183532715,0.012529519386589527,0.020216697826981544,53.169105529785156,330.8523864746094,0.30692166090011597,0.11952833086252213,-0.2877831757068634,-0.1555481255054474,1724940678.870952
1724940678.9243882,9.35,-0.006929063796997426,1724940678923389900,1724940678924388200,0.0,0.0235294122248888,1.0,4.451712131500244,0.006922893226146698,0.022779496386647224,53.46820831298828,330.8533630371094,0.3069130778312683,0.15175636112689972,-0.2865332365036011,-0.1567382663488388,1724940678.9243882
1724940678.9715905,9.4,-0.00413141250610316,1724940678965032700,1724940678967601800,0.0,0.0235294122248888,1.0,4.576267242431641,0.005680205300450325,0.022805551066994667,53.57459259033203,330.8537292480469,0.30690738558769226,0.1603371948003769,-0.2860414683818817,-0.1574096381664276,1724940678.967602
1724940679.0374222,9.450000000000001,-0.019963073730467684,1724940679039415600,1724940679042408400,0.0,0.0235294122248888,1.0,5.071610450744629,0.00443626893684268,0.028248673304915428,54.02883529663086,330.8552551269531,0.30691033601760864,0.19055306911468506,-0.28408804535865784,-0.1583862155675888,1724940679.0424085
1724940679.0684743,9.5,-0.0010151863098144531,1724940679060473200,1724940679063465500,0.0,0.0235294122248888,1.0,5.186113357543945,0.004422513768076897,0.02795395255088806,54.14097595214844,330.8556823730469,0.3069611191749573,0.1972469538450241,-0.2836304306983948,-0.1583251953125,1724940679.0634656
1724940679.129548,9.55,-0.012088966369628196,1724940679135064700,1724940679128551300,0.0,0.0235294122248888,1.0,5.55167818069458,0.0045057437382638454,0.027975264936685562,54.517547607421875,330.857177734375,0.3070370852947235,0.2188410758972168,-0.28231900930404663,-0.15792842209339142,1724940679.1285515
1724940679.198029,9.600000000000001,-0.030569934844969282,1724940679211924400,1724940679203018300,0.0,0.0235294122248888,1.0,5.907745838165283,0.00460367975756526,0.028897283598780632,54.91133117675781,330.85888671875,0.3070377707481384,0.24066607654094696,-0.28119203448295593,-0.15747065842151642,1724940679.2030184
