frame_timestamp_original,frame_timestamp_new,residual,time_hardwaremanager,time_carla,brake,steer,throttle,ego_vx,ego_vy,ego_vz,ego_x,ego_y,ego_z,ego_yaw,ego_pitch,ego_roll,time_carla_s
1724764600.4087317,0.0,0.0,1724764600412730800,1724764600412730800,-1.0,0.0,1.0,-1.429533426744456e-06,1.1335124327160884e-05,-0.004013263154774904,51.57194137573242,330.84967041015625,0.30574867129325867,2.426523315079976e-05,-0.13159041106700897,-0.1610412448644638,1724764600.412731
1724764600.468785,0.05,-0.010053348541259763,1724764600464794900,1724764600465794600,-1.0,0.0,1.0,-8.680834071128629e-06,1.9842293113470078e-05,-0.0029310144018381834,51.57194137573242,330.84967041015625,0.3055630624294281,2.3640404833713546e-05,-0.13226661086082458,-0.16070556640625,1724764600.4657946
1724764600.5266566,0.1,-0.017924928665161127,1724764600529679600,1724764600529679600,-1.0,0.0,1.0,-1.1235554666200187e-05,-8.125577551254537e-06,-0.0019525452516973019,51.57194137573242,330.84967041015625,0.3054352104663849,2.3326634618570097e-05,-0.13305890560150146,-0.1604309231042862,1724764600.5296798
1724764600.5796883,0.15000000000000002,-0.02095661163330076,1724764600582683200,1724764600582683200,-1.0,0.0,1.0,-1.16535966299125e-05,-8.979842277767602e-06,-0.001020698226056993,51.57194137573242,330.84967041015625,0.30539074540138245,2.2929465558263473e-05,-0.13370095193386078,-0.1602477878332138,1724764600.5826833
1724764600.6297855,0.2,-0.021053838729858387,1724764600625153900,1724764600625153900,-1.0,0.0,1.0,-9.097756446863059e-06,-7.0669780143362004e-06,-0.0009338592062704265,51.57194137573242,330.84967041015625,0.30534476041793823,2.2598551367991604e-05,-0.13428151607513428,-0.16009521484375,1724764600.625154
1724764600.6807826,0.25,-0.022050857543945312,1724764600679786000,1724764600677659700,-1.0,0.0,1.0,-6.699706773360958e-06,-4.987549800716806e-06,-0.0006893086829222739,51.57194137573242,330.84967041015625,0.3053160309791565,2.2369866201188415e-05,-0.13473230600357056,-0.1599731147289276,1724764600.6776597
1724764600.7217915,0.30000000000000004,-0.013059806823730424,1724764600721791600,1724764600719793900,-1.0,0.0,1.0,-4.8403653636341915e-06,-2.99633938993793e-06,-0.0003295757924206555,51.57194137573242,330.84967041015625,0.3053010106086731,2.2216374418349005e-05,-0.13504649698734283,-0.1599120944738388,1724764600.719794
1724764600.7719686,0.35000000000000003,-0.013236904144287076,1724764600774959400,1724764600772966400,-1.0,0.0,1.0,-2.863254451312969e-07,-1.6669775959599065e-07,1.288289058720693e-05,51.57194137573242,330.84967041015625,0.3052825927734375,2.2159862055559643e-05,-0.13513527810573578,-0.1598815619945526,1724764600.7729666
1724764600.8201804,0.4,-0.011448717117309548,1724764600829762300,1724764600825169200,-1.0,0.0,1.0,-8.050039355111949e-07,4.396062891487418e-08,0.00021380488760769367,51.57194137573242,330.84967041015625,0.3053010404109955,2.2159862055559643e-05,-0.13513527810573578,-0.1598815619945526,1724764600.8251693
1724764600.8716896,0.45,-0.01295785903930663,1724764600872686800,1724764600867167500,-1.0,0.0,1.0,-5.46291403225041e-07,-3.0536975259565224e-07,0.00010331261728424579,51.57194137573242,330.84967041015625,0.3053038716316223,2.2159862055559643e-05,-0.13513527810573578,-0.1598815619945526,1724764600.8671677
1724764600.9228067,0.5,-0.014075040817260742,1724764600916748600,1724764600920811000,-1.0,0.0,1.0,-4.491414244967018e-07,-3.2073631928142277e-07,8.06552852736786e-05,51.57194137573242,330.84967041015625,0.30530327558517456,2.2159862055559643e-05,-0.13513527810573578,-0.1598815619945526,1724764600.9208112
1724764600.9730961,0.55,-0.014364433288574174,1724764600970104600,1724764600974093800,-1.0,0.0,1.0,-1.2804143807443324e-06,9.264566074307368e-07,0.000467384496005252,51.57194137573242,330.84967041015625,0.3053100109100342,2.2159862055559643e-05,-0.13513527810573578,-0.1598815619945526,1724764600.974094
1724764601.026144,0.6000000000000001,-0.017412328720092685,1724764601025147400,1724764601027141600,-1.0,0.0,1.0,4.788732965721465e-08,-4.5952842242513725e-07,-7.477020699298009e-05,51.57194137573242,330.84967041015625,0.3053037226200104,2.2159862055559643e-05,-0.13513527810573578,-0.1598815619945526,1724764601.0271418
1724764601.0769305,0.65,-0.018198823928832986,1724764601079458700,1724764601080668000,-1.0,0.0,1.0,5.914220082559041e-07,-9.37571826398198e-07,-0.00028576955082826316,51.57194137573242,330.84967041015625,0.3053043782711029,2.2159862055559643e-05,-0.13513527810573578,-0.1598815619945526,1724764601.080668
1724764601.128654,0.7000000000000001,-0.019922304153442316,1724764601132675500,1724764601133671500,-1.0,0.0,1.0,-1.2018230677313113e-07,1.9273236340211497e-09,2.8426498829503544e-05,51.57194137573242,330.84967041015625,0.3053058981895447,2.2159862055559643e-05,-0.13513527810573578,-0.1598815619945526,1724764601.1336715
1724764601.1791327,0.75,-0.0204010009765625,1724764601175635700,1724764601177636800,-1.0,0.0,1.0,0.0,0.0,0.0,51.57194137573242,330.84967041015625,0.3053145110607147,2.2159862055559643e-05,-0.13513527810573578,-0.1598815619945526,1724764601.1776369
1724764601.2271557,0.8,-0.01842398643493648,1724764601229705000,1724764601230705500,-1.0,0.0,1.0,-1.0455196388647892e-06,1.1843388847410097e-06,0.0004471208085305989,51.57194137573242,330.84967041015625,0.3053194284439087,2.2159862055559643e-05,-0.13513527810573578,-0.1598815619945526,1724764601.2307055
1724764601.2798145,0.8500000000000001,-0.02108278274536124,1724764601282806300,1724764601282806300,-1.0,0.0,1.0,4.05032068329092e-07,-5.279692913973122e-07,-0.00016607620636932552,51.57194137573242,330.84967041015625,0.30531105399131775,2.2159862055559643e-05,-0.13513527810573578,-0.1598815619945526,1724764601.2828064
1724764601.3302019,0.9,-0.021470165252685525,1724764601335191200,1724764601335191200,-1.0,0.0,1.0,-7.23966707028012e-07,8.167307896655984e-07,0.00031155740725807846,51.57194137573242,330.84967041015625,0.3053160011768341,2.2159862055559643e-05,-0.13513527810573578,-0.1598815619945526,1724764601.3351915
1724764601.3822072,0.9500000000000001,-0.023475456237792902,1724764601377652300,1724764601377652300,-1.0,0.0,1.0,2.907419229813968e-07,-3.7001052533014445e-07,-0.00011890250607393682,51.57194137573242,330.84967041015625,0.3053126037120819,2.2159862055559643e-05,-0.13513527810573578,-0.1598815619945526,1724764601.3776524
1724764601.431862,1.0,-0.023130416870117188,1724764601431862000,1724764601430861600,-1.0,0.0,1.0,-1.8661266665276344e-07,2.6557543719718524e-07,7.745983020868152e-05,51.57194137573242,330.84967041015625,0.3053140938282013,2.2159862055559643e-05,-0.13513527810573578,-0.1598815619945526,1724764601.4308617
1724764601.4805627,1.05,-0.021830987930297807,1724764601485552500,1724764601483557700,-1.0,0.0,1.0,-1.0257900839860667e-06,1.186042140943755e-06,0.0004385910870041698,51.57194137573242,330.84967041015625,0.30532145500183105,2.2159862055559643e-05,-0.13513527810573578,-0.1598815619945526,1724764601.4835577
1724764601.5328703,1.1,-0.024138593673705966,1724764601540124300,1724764601535864500,-1.0,0.0,1.0,-1.9652351568311133e-07,2.2769215490825445e-07,8.689105743542314e-05,51.57194137573242,330.84967041015625,0.30531445145606995,2.2159862055559643e-05,-0.13513527810573578,-0.1598815619945526,1724764601.5358646
1724764601.5593402,1.1500000000000001,-0.0006085395812986949,1724764601561340000,1724764601556838500,0.0,0.0235294122248888,0.0,-1.9652351568311133e-07,2.2769215490825445e-07,8.689105743542314e-05,51.57194137573242,330.84967041015625,0.30531445145606995,2.2159862055559643e-05,-0.13513527810573578,-0.1598815619945526,1724764601.5568385
1724764601.6339915,1.2000000000000002,-0.025259780883788885,1724764601624780600,1724764601630001300,0.0,0.0235294122248888,0.0,5.252616119832965e-09,-3.5640290718674805e-08,1.993138084799284e-06,51.57194137573242,330.84967041015625,0.30531570315361023,2.2159862055559643e-05,-0.13513527810573578,-0.1598815619945526,1724764601.6300015
1724764601.6831887,1.25,-0.02445697784423828,1724764601680194800,1724764601683188700,0.0,0.0235294122248888,0.0,0.06376848369836807,6.947224028408527e-05,0.00011190819350304082,51.57279586791992,330.84967041015625,0.30532920360565186,0.0001448786206310615,-0.1365969479084015,-0.1597900241613388,1724764601.683189
1724764601.732704,1.3,-0.02397222518920894,1724764601735695200,1724764601735695200,0.0,0.0235294122248888,0.0,0.1312827616930008,0.00016373842663597316,0.0007242365390993655,51.57841491699219,330.84967041015625,0.3054004907608032,0.0006023940513841808,-0.14322222769260406,-0.15972900390625,1724764601.7356951
1724764601.7826579,1.35,-0.023926162719726474,1724764601778646600,1724764601777649100,0.0,0.0235294122248888,0.0,0.13896287977695465,0.00017424952238798141,0.0006115506403148174,51.58168029785156,330.84967041015625,0.3054334819316864,0.0007255177479237318,-0.14572890102863312,-0.1596984714269638,1724764601.7776492
1724764601.8326683,1.4000000000000001,-0.023936605453491078,1724764601831670800,1724764601830674100,0.0,0.0235294122248888,0.0,0.14317265152931213,0.00017898912483360618,0.00015028535563033074,51.589027404785156,330.84967041015625,0.3054492771625519,0.001000327873043716,-0.1484678089618683,-0.15966796875,1724764601.8306742
1724764601.885164,1.4500000000000002,-0.02643232345581037,1724764601887156500,1724764601884165500,0.0,0.0235294122248888,0.0,0.14289329946041107,0.0001791861723177135,4.022051507490687e-05,51.59981155395508,330.84967041015625,0.3054388463497162,0.0014030438615009189,-0.14773698151111603,-0.15966796875,1724764601.8841655
1724764601.933678,1.5,-0.024946212768554688,1724764601931682700,1724764601936671700,0.0,0.0235294122248888,0.0,0.14224836230278015,0.00017889385344460607,9.375393710797653e-05,51.60685729980469,330.84967041015625,0.3054203391075134,0.0016660294495522976,-0.1456674337387085,-0.1596984565258026,1724764601.9366717
1724764601.9591446,1.55,-0.00041289329528804153,1724764601953651600,1724764601957642300,0.0,0.0235294122248888,0.0,0.14224836230278015,0.00017889385344460607,9.375393710797653e-05,51.60685729980469,330.84967041015625,0.3054203391075134,0.0016660294495522976,-0.1456674337387085,-0.1596984565258026,1724764601.9576423
1724764602.035675,1.6,-0.026943349838256747,1724764602029687000,1724764602031684300,0.0,0.0235294122248888,0.0,0.14124368131160736,0.00017916607612278312,0.0005915284855291247,51.61762619018555,330.84967041015625,0.3053811490535736,0.0020676469430327415,-0.14193814992904663,-0.15972900390625,1724764602.0316844
1724764602.0608277,1.6500000000000001,-0.0020960330963133433,1724764602059830500,1724764602061828200,0.0,0.0235294122248888,0.0,0.14058512449264526,0.00017749721882864833,0.0002950953203253448,51.624847412109375,330.84967041015625,0.3053536117076874,0.0023368699476122856,-0.13964320719242096,-0.1597595363855362,1724764602.0618281
1724764602.1113112,1.7000000000000002,-0.0025794982910154474,1724764602114301300,1724764602116296400,0.0,0.0235294122248888,0.0,0.13994258642196655,0.00017582220607437193,3.204745371476747e-05,51.631961822509766,330.84967041015625,0.30533280968666077,0.0026022628881037235,-0.1378195434808731,-0.1597595065832138,1724764602.1162965
1724764602.1621766,1.75,-0.0034449100494384766,1724764602158840700,1724764602160179200,0.0,0.0235294122248888,0.0,0.1393103152513504,0.00017670885426923633,0.000681689300108701,51.63896179199219,330.84967041015625,0.30532488226890564,0.0028635328635573387,-0.13647399842739105,-0.1597900241613388,1724764602.1601794
1724764602.2122128,1.8,-0.0034811019897460493,1724764602213211200,1724764602213211200,0.0,0.0235294122248888,0.0,0.13867692649364471,0.00017508988094050437,0.0004166382714174688,51.64598846435547,330.84967041015625,0.3053157329559326,0.0031259479001164436,-0.1354972869157791,-0.1597900092601776,1724764602.2132113
1724764602.2616746,1.85,-0.002942943572997958,1724764602257158500,1724764602257158500,0.0,0.0235294122248888,0.0,0.13835369050502777,0.00017405689868610352,0.00019737826369237155,51.64957809448242,330.84967041015625,0.30530840158462524,0.003259665332734585,-0.13516943156719208,-0.1597900241613388,1724764602.2571585
1724764602.3137074,1.9000000000000001,-0.004975652694702015,1724764602311712200,1724764602309714300,0.0,0.0235294122248888,0.0,0.13774390518665314,0.00017353308794554323,0.00034641707316040993,51.65631866455078,330.84967041015625,0.3053140938282013,0.0035107582807540894,-0.13473230600357056,-0.1597900241613388,1724764602.3097143
1724764602.3641574,1.9500000000000002,-0.0054257392883299005,1724764602366152200,1724764602363160900,0.0,0.0235294122248888,0.0,0.13679450750350952,0.0001721209700917825,0.00025546320830471814,51.666748046875,330.8496398925781,0.30530667304992676,0.0039000578690320253,-0.13443177938461304,-0.15978999435901642,1724764602.3631608
1724764602.4126728,2.0,-0.003941059112548828,1724764602420185000,1724764602415664700,0.0,0.0235294122248888,0.0,0.13617530465126038,0.0001724614412523806,0.0006848336197435856,51.67350387573242,330.8496398925781,0.30531153082847595,0.004152318462729454,-0.13443177938461304,-0.1597900092601776,1724764602.4156647
1724764602.461977,2.0500000000000003,-0.003245306015014382,1724764602461977100,1724764602457783300,0.0,0.0235294122248888,0.0,0.13587971031665802,0.0001718052226351574,0.0005753927398473024,51.67673110961914,330.8496398925781,0.30531856417655945,0.004272774327546358,-0.13443177938461304,-0.15978999435901642,1724764602.4577835
1724764602.5118752,2.1,-0.003143453598022372,1724764602514867400,1724764602509744700,0.0,0.0235294122248888,0.0,0.13493891060352325,0.00016990955919027328,0.00030784631962887943,51.686981201171875,330.8496398925781,0.3053103983402252,0.004655151162296534,-0.1345820426940918,-0.1597900092601776,1724764602.5097446
1724764602.5638554,2.15,-0.005123710632324308,1724764602569346200,1724764602561861800,0.0,0.0235294122248888,0.0,0.13430267572402954,0.00016810212400741875,-3.584279693313874e-05,51.693904876708984,330.8496398925781,0.3053008019924164,0.004913393408060074,-0.13467083871364594,-0.1597900092601776,1724764602.561862
1724764602.6136727,2.2,-0.004941034317016424,1724764602623221700,1724764602615666200,0.0,0.0235294122248888,0.0,0.1336890608072281,0.00016791287634987384,0.0001546648854855448,51.7005615234375,330.8496398925781,0.30530551075935364,0.005161773879081011,-0.13473230600357056,-0.1597900092601776,1724764602.6156664
1724764602.662825,2.25,-0.0040934085845947266,1724764602668809300,1724764602657228400,0.0,0.0235294122248888,0.0,0.13308747112751007,0.00016894111467991024,0.0008201205637305975,51.70707321166992,330.8496398925781,0.30531591176986694,0.005404696799814701,-0.13482792675495148,-0.1597900092601776,1724764602.6572285
1724764602.7126813,2.3000000000000003,-0.003949594497680398,1724764602712681200,1724764602711682700,0.0,0.0235294122248888,0.0,0.01057315431535244,8.791227446636185e-05,-0.0001472492003813386,51.71260070800781,330.8496398925781,0.3052977919578552,0.00546064181253314,-0.133079394698143,-0.1597900390625,1724764602.711683
1724764602.7608643,2.35,-0.002132558822631747,1724764602766846700,1724764602764851500,0.0,0.0235294122248888,0.0,0.00011989894119324163,2.354567868678714e-06,0.00020048934675287455,51.71260070800781,330.8496398925781,0.3052196800708771,0.005430246237665415,-0.12567546963691711,-0.1598510891199112,1724764602.7648516
1724764602.8128312,2.4000000000000004,-0.004099464416503551,1724764602810836900,1724764602817819100,0.0,0.0235294122248888,0.0,3.5733664844883606e-05,1.1797781240829863e-07,-0.00023844718816690147,51.71260070800781,330.8496398925781,0.305176705121994,0.005430023185908794,-0.12261554598808289,-0.1599120944738388,1724764602.8178194
1724764602.8628945,2.45,-0.004162836074828924,1724764602855783600,1724764602859899800,0.0,0.0235294122248888,0.0,7.061860742396675e-06,1.4214040220394963e-06,0.00038419009069912136,51.71260070800781,330.8496398925781,0.30518320202827454,0.0054299780167639256,-0.12228769809007645,-0.159912109375,1724764602.8599
1724764602.9527004,2.5,-0.04396867752075195,1724764602952700500,1724764602955692700,0.0,0.0235294122248888,0.0,-5.00755850225687e-05,-1.4877116427669534e-06,-0.0003111769910901785,51.71260070800781,330.8496398925781,0.3051760494709015,0.005430043675005436,-0.12567546963691711,-0.159881591796875,1724764602.955693
1724764602.978706,2.5500000000000003,-0.019974184036254616,1724764602974208000,1724764602977199800,0.0,0.0235294122248888,0.0,-5.34256651008036e-05,7.955977139317838e-07,0.0005441479734145105,51.71260070800781,330.8496398925781,0.3052024841308594,0.005430087447166443,-0.12682977318763733,-0.1598815768957138,1724764602.9772
1724764603.028665,2.6,-0.019933366775512606,1724764603029678600,1724764603031675900,0.0,0.0235294122248888,0.0,-4.9703477998264134e-05,-3.122893019735784e-07,0.0001258592092199251,51.71260452270508,330.8496398925781,0.3052349090576172,0.005430178251117468,-0.12914520502090454,-0.15985107421875,1724764603.031676
1724764603.077144,2.6500000000000004,-0.01841220855712855,1724764603073153200,1724764603075149300,0.0,0.0235294122248888,0.0,-4.7018842451507226e-05,5.397382096816727e-07,0.0004432075656950474,51.71260452270508,330.8496398925781,0.3052573800086975,0.005430219229310751,-0.13019022345542908,-0.1598510891199112,1724764603.0751495
1724764603.1271572,2.7,-0.018425512313842596,1724764603126160900,1724764603128663900,0.0,0.0235294122248888,0.0,-3.43300439453742e-06,1.7247269568088086e-07,4.552152313408442e-05,51.71260452270508,330.8496398925781,0.3052871525287628,0.0054303063079714775,-0.1322939246892929,-0.159820556640625,1724764603.128664
1724764603.1786246,2.75,-0.01989293098449707,1724764603180130600,1724764603181131300,0.0,0.0235294122248888,0.0078431377187371,0.05597443878650665,6.898848369019106e-05,-0.00020882657554466277,51.71388626098633,330.8496398925781,0.3052884042263031,0.00568546075373888,-0.13452057540416718,-0.1597900092601776,1724764603.1811314
1724764603.2272303,2.8000000000000003,-0.018498611450195046,1724764603222244900,1724764603223242100,0.0,0.0235294122248888,0.0235294122248888,0.03596227243542671,-4.726854058390018e-06,0.000427709223004058,51.714881896972656,330.8496398925781,0.30530935525894165,0.0058251069858670235,-0.1357090175151825,-0.1597900092601776,1724764603.223242
1724764603.278626,2.85,-0.01989426612853995,1724764603275632600,1724764603276631100,0.0,0.0235294122248888,0.2078431397676468,0.05173325166106224,9.135554864769801e-05,-8.427287684753537e-05,51.71822738647461,330.8496398925781,0.3053215742111206,0.006147398147732019,-0.13788102567195892,-0.159759521484375,1724764603.276631
1724764603.3271513,2.9000000000000004,-0.0184195995330807,1724764603328658300,1724764603329672000,0.0,0.0235294122248888,0.3058823645114898,0.051739733666181564,9.369707549922168e-05,-0.00010677194950403646,51.72034454345703,330.8496398925781,0.3053232729434967,0.006286181043833494,-0.13812008500099182,-0.159759521484375,1724764603.329672
1724764603.3776596,2.95,-0.018927860260009588,1724764603381673100,1724764603382670400,0.0,0.0235294122248888,0.4823529422283172,0.05287976935505867,9.504544141236693e-05,0.0005161556764505804,51.72242736816406,330.8496398925781,0.30533114075660706,0.006315081380307674,-0.13788102567195892,-0.1597595065832138,1724764603.3826704
1724764603.429166,3.0,-0.02043437957763672,1724764603423675900,1724764603424673200,0.0,0.0235294122248888,0.5882353186607361,0.0362369604408741,1.254864673683187e-05,4.480786083149724e-05,51.72349548339844,330.8496398925781,0.30532732605934143,0.00642660167068243,-0.13769660890102386,-0.159759521484375,1724764603.4246733
1724764603.4758205,3.0500000000000003,-0.017088842391967507,1724764603476816900,1724764603477814300,0.0,0.0235294122248888,0.6901960968971252,0.3794262111186981,0.0007888433174230158,0.0011918536620214581,51.73728942871094,330.849609375,0.3054902255535126,0.008280466310679913,-0.15157555043697357,-0.1597289741039276,1724764603.4778144
1724764603.528694,3.1,-0.019962215423583896,1724764603529976900,1724764603530977300,0.0,0.0235294122248888,0.8078431487083435,0.5948993563652039,0.0017211386002600193,0.0014151998329907656,51.76402282714844,330.8495178222656,0.3057149350643158,0.01720372401177883,-0.1743200719356537,-0.159332275390625,1724764603.5309775
1724764603.577688,3.1500000000000004,-0.018956279754638317,1724764603571704200,1724764603572702000,0.0,0.0235294122248888,0.8196078538894653,0.6945672035217285,0.0023525652941316366,0.002251091180369258,51.78101348876953,330.84967041015625,0.30582842230796814,0.013234910555183887,-0.1851254403591156,-0.1590881198644638,1724764603.5727022
1724764603.6268485,3.2,-0.018116760253906072,1724764603624853400,1724764603625850700,0.0,0.0235294122248888,0.8313725590705872,1.0111510753631592,0.001043466734699905,0.0034824872855097055,51.82703399658203,330.84954833984375,0.3060983717441559,0.025542156770825386,-0.21081377565860748,-0.158966064453125,1724764603.6258507
1724764603.6807537,3.25,-0.022022008895874023,1724764603677652500,1724764603679657400,0.0,0.0235294122248888,0.8392156958580017,1.373226284980774,0.0017082256963476539,0.005467800889164209,51.91971206665039,330.849609375,0.30641287565231323,0.023146577179431915,-0.2410578578710556,-0.158905029296875,1724764603.6796577
1724764603.7285116,3.3000000000000003,-0.019779872894286843,1724764603730534700,1724764603732531700,0.0,0.0235294122248888,0.843137264251709,1.6701983213424683,0.0018993148114532232,0.00792166218161583,51.99636459350586,330.8497619628906,0.30656036734580994,0.030497152358293533,-0.2547045648097992,-0.1587219089269638,1724764603.7325318
1724764603.7807224,3.35,-0.02199068069457999,1724764603782718000,1724764603784712200,0.0,0.0235294122248888,0.843137264251709,1.9401901960372925,0.002223274204879999,0.009061034768819809,52.090003967285156,330.8499450683594,0.306692510843277,0.03701851889491081,-0.26760679483413696,-0.1585693359375,1724764603.7847123
1724764603.8297327,3.4000000000000004,-0.021000957489013317,1724764603825206700,1724764603827202200,0.0,0.0235294122248888,0.8470588326454163,2.0726284980773926,0.0023235902190208435,0.010150698013603687,52.13877487182617,330.85003662109375,0.30674928426742554,0.040676530450582504,-0.27225133776664734,-0.1584777981042862,1724764603.8272023
1724764603.8796656,3.45,-0.020933914184570135,1724764603877654400,1724764603880776200,0.0,0.0235294122248888,0.8470588326454163,2.4423208236694336,0.0026868381537497044,0.012073390185832977,52.31100082397461,330.85028076171875,0.30683425068855286,0.050926048308610916,-0.280488520860672,-0.1582946479320526,1724764603.8807764
1724764603.9311702,3.5,-0.022438526153564453,1724764603930170900,1724764603934162900,0.0,0.0235294122248888,0.8509804010391235,2.682513952255249,0.00291536096483469,0.013001343235373497,52.44393539428711,330.8504333496094,0.30683135986328125,0.05855213850736618,-0.2809393107891083,-0.158203125,1724764603.934163
1724764603.9816654,3.5500000000000003,-0.02293367385864231,1724764603973158300,1724764603977148000,0.0,0.0235294122248888,0.8509804010391235,2.803377389907837,0.003025747137144208,0.013578016310930252,52.51569747924805,330.8504943847656,0.30681952834129333,0.062606580555439,-0.2801470160484314,-0.1582030951976776,1724764603.977148
1724764604.0333068,3.6,-0.024575138092040927,1724764604035301100,1724764604042178000,0.0,0.0235294122248888,0.8549019694328308,3.157175064086914,0.0033315769396722317,0.015038518235087395,52.74457931518555,330.8507995605469,0.3067760467529297,0.07536168396472931,-0.2759123146533966,-0.1581420600414276,1724764604.0421782
1724764604.0837064,3.6500000000000004,-0.02497467994689906,1724764604077890100,1724764604084702100,0.0,0.0235294122248888,0.8588235378265381,3.3865182399749756,0.003517176490277052,0.01608583889901638,52.90734100341797,330.8511962890625,0.3067508935928345,0.08431801944971085,-0.2727021276950836,-0.1580810248851776,1724764604.0847023
1724764604.1097229,3.7,-0.000991153717040838,1724764604099167400,1724764604105668300,0.0,0.0235294122248888,0.8588235378265381,3.3865182399749756,0.003517176490277052,0.01608583889901638,52.90734100341797,330.8511962890625,0.3067508935928345,0.08431801944971085,-0.2727021276950836,-0.1580810248851776,1724764604.1056685
1724764604.1601875,3.75,-0.0014557838439941406,1724764604152217200,1724764604158709200,0.0,0.0235294122248888,0.8627451062202454,3.73962140083313,0.0037807528860867023,0.017290456220507622,53.18054962158203,330.85174560546875,0.30670198798179626,0.09920112043619156,-0.2683103084564209,-0.1580505222082138,1724764604.1587093
1724764604.2102394,3.8000000000000003,-0.0015077114105221945,1724764604205720900,1724764604212235700,0.0,0.0235294122248888,0.8627451062202454,3.9750916957855225,0.003943212796002626,0.018408263102173805,53.37821960449219,330.8521423339844,0.3066771328449249,0.10987008363008499,-0.2660563588142395,-0.157989501953125,1724764604.212236
1724764604.2611763,3.85,-0.0024446487426756924,1724764604258792200,1724764604265166200,0.0,0.0235294122248888,0.8627451062202454,4.210495948791504,0.004093364346772432,0.01944318786263466,53.58871078491211,330.85272216796875,0.3066578805446625,0.12114980816841125,-0.2643146514892578,-0.1579284518957138,1724764604.2651663
1724764604.3118923,3.9000000000000004,-0.003160572052001598,1724764604301254900,1724764604308746200,0.0,0.0235294122248888,0.8627451062202454,4.3288116455078125,0.004163660574704409,0.0198438111692667,53.699432373046875,330.8529968261719,0.30664873123168945,0.12705211341381073,-0.26358380913734436,-0.1578979641199112,1724764604.3087463
1724764604.3642054,3.95,-0.0054736614227293146,1724764604354217200,1724764604361212700,0.0,0.0235294122248888,0.8627451062202454,4.559481620788574,0.004291965160518885,0.02075221762061119,53.92483139038086,330.85357666015625,0.3066401183605194,0.13900569081306458,-0.2625114619731903,-0.157806396484375,1724764604.3612127
1724764604.4147966,4.0,-0.006064891815185547,1724764604410807500,1724764604413799200,0.0,0.0235294122248888,0.8627451062202454,4.902641773223877,0.00445887167006731,0.022063840180635452,54.28376770019531,330.8546447753906,0.30663052201271057,0.15788528323173523,-0.2613776624202728,-0.1576843112707138,1724764604.4137993
1724764604.465683,4.05,-0.006951284408569514,1724764604464685500,1724764604467677900,0.0,0.0235294122248888,0.8588235378265381,5.1377034187316895,0.004566897172480822,0.026319801807403564,54.54649353027344,330.85546875,0.30670908093452454,0.17158818244934082,-0.2608107626438141,-0.1575927436351776,1724764604.467678
1724764604.5141544,4.1000000000000005,-0.0054227352142328655,1724764604506267200,1724764604511161100,0.0,0.0235294122248888,0.8588235378265381,5.244557857513428,0.004603041335940361,0.025867728516459465,54.67048263549805,330.8558654785156,0.3067614734172821,0.17802107334136963,-0.26055803894996643,-0.15753173828125,1724764604.511161
1724764604.5662773,4.15,-0.007545566558837535,1724764604560290400,1724764604564281800,0.0,0.0235294122248888,0.8549019694328308,5.4756999015808105,0.004674912896007299,0.025570828467607498,54.94887161254883,330.85687255859375,0.3068193793296814,0.19239157438278198,-0.26003894209861755,-0.1574401706457138,1724764604.564282
1724764604.6178076,4.2,-0.009075927734374822,1724764604611823900,1724764604615813300,0.0,0.0235294122248888,0.8509804010391235,5.706130027770996,0.004745763726532459,0.025853881612420082,55.24061584472656,330.8580017089844,0.3068280816078186,0.20730440318584442,-0.25949254631996155,-0.1573486030101776,1724764604.6158135
1724764604.6691968,4.25,-0.010465145111083984,1724764604666697200,1724764604659715800,0.0,0.0235294122248888,0.8509804010391235,6.038802623748779,0.00475456565618515,0.02685670554637909,55.69215393066406,330.85992431640625,0.30679887533187866,0.2309914380311966,-0.258447527885437,-0.1571654975414276,1724764604.659716
1724764604.7229624,4.3,-0.01423068046569842,1724764604721965100,1724764604722962400,0.0,0.0235294122248888,0.8509804010391235,6.262315273284912,0.004716971889138222,0.027719784528017044,56.01974105834961,330.8613586425781,0.30676668882369995,0.24863284826278687,-0.2573888301849365,-0.1570129245519638,1724764604.7229626
1724764604.7727225,4.3500000000000005,-0.013990783691405717,1724764604776712400,1724764604775714900,0.0,0.0235294122248888,0.8509804010391235,6.475939750671387,0.004794894251972437,0.02858479507267475,56.33951187133789,330.8629150390625,0.3067348599433899,0.2644922733306885,-0.2561320662498474,-0.156890869140625,1724764604.7757149
1724764604.8236656,4.4,-0.014933919906615856,1724764604820673800,1724764604819472600,0.0,0.0235294122248888,0.8509804010391235,6.587226867675781,0.005030647851526737,0.029058920219540596,56.50945281982422,330.86376953125,0.3067208528518677,0.2709650993347168,-0.2556129992008209,-0.156890869140625,1724764604.8194728
1724764604.8766577,4.45,-0.017926025390624822,1724764604874662200,1724764604873665100,0.0,0.0235294122248888,0.8509804010391235,6.805737495422363,0.0049927253276109695,0.03003384731709957,56.846561431884766,330.8654479980469,0.30670034885406494,0.28796371817588806,-0.2549436390399933,-0.15676875412464142,1724764604.873665
1724764604.9268796,4.5,-0.018147945404052734,1724764604926879800,1724764604925883200,0.0,0.0235294122248888,0.8509804010391235,7.144171237945557,0.004866132512688637,0.03162454441189766,57.39066696166992,330.86846923828125,0.3066849410533905,0.3156573474407196,-0.2547933757305145,-0.156585693359375,1724764604.9258833
1724764604.980627,4.55,-0.02189536094665545,1724764604979353400,1724764604979353400,0.0,0.0235294122248888,0.8470588326454163,7.374188423156738,0.004831864032894373,0.03269605711102486,57.78157424926758,330.87078857421875,0.30667945742607117,0.33491578698158264,-0.254766047000885,-0.1564330905675888,1724764604.9793534
1724764605.0116782,4.6000000000000005,-0.0029465198516840374,1724764605012676200,1724764605013674700,0.0,0.0235294122248888,0.8470588326454163,7.480149745941162,0.004821991082280874,0.033179305493831635,57.96749496459961,330.8718566894531,0.30667710304260254,0.3439936637878418,-0.2547045648097992,-0.1563720703125,1724764605.013675
1724764605.083708,4.65,-0.02497634887695277,1724764605086700300,1724764605088695000,0.0,0.0235294122248888,0.843137264251709,7.810732364654541,0.004717388190329075,0.034616079181432724,58.570228576660156,330.8757019042969,0.30666863918304443,0.373772531747818,-0.25417181849479675,-0.1561279296875,1724764605.088695
1724764605.1122332,4.7,-0.0035014629364011896,1724764605107659300,1724764605109160900,0.0,0.0235294122248888,0.843137264251709,7.810732364654541,0.004717388190329075,0.034616079181432724,58.570228576660156,330.8757019042969,0.30666863918304443,0.373772531747818,-0.25417181849479675,-0.1561279296875,1724764605.1091611
1724764605.1649728,4.75,-0.0062410831451416016,1724764605160984200,1724764605161979500,0.0,0.0235294122248888,0.843137264251709,8.037213325500488,0.004631534684449434,0.035545412451028824,59.003055572509766,330.878662109375,0.3066614270210266,0.3950304687023163,-0.2535366117954254,-0.155975341796875,1724764605.1619794
1724764605.217624,4.800000000000001,-0.008892250061034446,1724764605213634000,1724764605214632700,0.0,0.0235294122248888,0.843137264251709,8.253691673278809,0.004535647574812174,0.03640689328312874,59.43137741088867,330.8817138671875,0.3066537082195282,0.41598838567733765,-0.25280576944351196,-0.1558227241039276,1724764605.2146327
1724764605.2687068,4.8500000000000005,-0.0099750995635981,1724764605267119600,1724764605268626900,0.0,0.0235294122248888,0.843137264251709,8.570893287658691,0.004367227200418711,0.037641920149326324,60.08417510986328,330.88671875,0.3066417872905731,0.4477901756763458,-0.25167879462242126,-0.1555786281824112,1724764605.2686272
1724764605.32166,4.9,-0.012928342819213512,1724764605319662600,1724764605320663800,0.0,-0.0235294122248888,0.843137264251709,8.785707473754883,-0.0009487669449299574,0.038477711379528046,60.5432243347168,330.8902587890625,0.30663391947746277,0.46782028675079346,-0.2508796751499176,-0.1561889499425888,1724764605.320664
1724764605.3736613,4.95,-0.014929580688476385,1724764605371667500,1724764605372664000,0.0,-0.0235294122248888,0.843137264251709,8.995817184448242,-0.006567138712853193,0.03930308669805527,61.0054931640625,330.8937072753906,0.30662667751312256,0.4784030616283417,-0.25018298625946045,-0.1582641303539276,1724764605.3726642
1724764605.4267786,5.0,-0.018046855926513672,1724764605424783700,1724764605425780500,0.0,-0.0235294122248888,0.843137264251709,9.207784652709961,-0.00889068003743887,0.04012531414628029,61.48524856567383,330.8971862792969,0.30661988258361816,0.4825480282306671,-0.24950680136680603,-0.1596374213695526,1724764605.4257805
1724764605.4791527,5.050000000000001,-0.0204209804534905,1724764605477652700,1724764605480248400,0.0,-0.0235294122248888,0.843137264251709,9.419599533081055,-0.009661725722253323,0.040948912501335144,61.97822952270508,330.90081787109375,0.3066136837005615,0.4824163019657135,-0.24889890849590302,-0.1601562350988388,1724764605.4802485
1724764605.5315003,5.1000000000000005,-0.022768640518187944,1724764605531500300,1724764605534492300,0.0,-0.0235294122248888,0.843137264251709,9.629292488098145,-0.009770672768354416,0.04176277667284012,62.47975540161133,330.90460205078125,0.3066079616546631,0.47947269678115845,-0.24831834435462952,-0.1602477878332138,1724764605.5344925
1724764605.5827696,5.15,-0.02403793334960902,1724764605583766900,1724764605586759000,0.0,-0.0235294122248888,0.843137264251709,9.831921577453613,-0.009641129523515701,0.042556390166282654,62.97724533081055,330.90826416015625,0.30660280585289,0.4747912287712097,-0.24783340096473694,-0.16021728515625,1724764605.586759
1724764605.6100006,5.2,-0.0012689113616941583,1724764605604814800,1724764605607807900,0.0,-0.0235294122248888,0.843137264251709,9.93972110748291,-0.009537698701024055,0.042976390570402145,63.24713897705078,330.9103088378906,0.3066001832485199,0.47174546122550964,-0.24756018817424774,-0.160186767578125,1724764605.607808
1724764605.6642032,5.25,-0.005471467971801758,1724764605657218400,1724764605661211800,0.0,-0.0235294122248888,0.843137264251709,10.138437271118164,-0.009340030141174793,0.043758463114500046,63.75413513183594,330.91400146484375,0.30659550428390503,0.4653610289096832,-0.247129887342453,-0.1601867824792862,1724764605.661212
1724764605.7132678,5.300000000000001,-0.004536104202269797,1724764605712270600,1724764605715262600,0.0,-0.0235294122248888,0.843137264251709,10.345778465270996,-0.009149222634732723,0.04456867650151253,64.29644775390625,330.9179992675781,0.3065907657146454,0.4578477740287781,-0.24667227268218994,-0.1602477878332138,1724764605.715263
1724764605.7646828,5.3500000000000005,-0.005951070785521928,1724764605765679000,1724764605769787700,0.0,-0.0235294122248888,0.843137264251709,10.54783821105957,-0.008992086164653301,0.045353684574365616,64.838134765625,330.92193603515625,0.3065861761569977,0.44987571239471436,-0.24621464312076569,-0.1603698581457138,1724764605.7697878
1724764605.815973,5.4,-0.007241344451903942,1724764605806852500,1724764605810989000,0.0,-0.0235294122248888,0.843137264251709,10.654092788696289,-0.008920321241021156,0.0457637794315815,65.12828063964844,330.9239807128906,0.3065837621688843,0.4454672336578369,-0.245968759059906,-0.1604308784008026,1724764605.8109891
1724764605.8686504,5.45,-0.009918737411498846,1724764605860671700,1724764605864661500,0.0,-0.0235294122248888,0.843137264251709,10.847180366516113,-0.008808805607259274,0.046518389135599136,65.66482543945312,330.92767333984375,0.30657947063446045,0.43713200092315674,-0.24557261168956757,-0.1605834811925888,1724764605.8646617
1724764605.9210093,5.5,-0.012277603149414062,1724764605912728600,1724764605916718700,0.0,-0.0235294122248888,0.843137264251709,11.049742698669434,-0.008710429072380066,0.04729769751429558,66.24083709716797,330.9316711425781,0.3065749406814575,0.42798471450805664,-0.2451149821281433,-0.160736083984375,1724764605.9167187
1724764605.9721627,5.550000000000001,-0.013431024551390891,1724764605965198100,1724764605970166900,0.0,-0.0235294122248888,0.843137264251709,11.250243186950684,-0.00862727127969265,0.04807106405496597,66.82428741455078,330.93560791015625,0.30657047033309937,0.4185704290866852,-0.24468468129634857,-0.1608886420726776,1724764605.970167
1724764606.027646,5.6000000000000005,-0.018914365768432084,1724764606018651500,1724764606022660100,0.0,-0.0235294122248888,0.843137264251709,11.540220260620117,-0.008522494696080685,0.049179866909980774,67.69184112548828,330.94140625,0.3065638840198517,0.4043808877468109,-0.24404947459697723,-0.1611023098230362,1724764606.0226603
1724764606.076724,5.65,-0.0179923534393307,1724764606071737000,1724764606075726700,0.0,-0.0235294122248888,0.843137264251709,11.747620582580566,-0.00845202337950468,0.04997007176280022,68.32982635498047,330.94549560546875,0.3065592050552368,0.3938436210155487,-0.24359185993671417,-0.1612548679113388,1724764606.0757267
1724764606.129657,5.7,-0.02092533111572248,1724764606126138200,1724764606131124600,0.0,-0.0235294122248888,0.843137264251709,11.943469047546387,-0.008387211710214615,0.05071417987346649,68.94573211669922,330.9493713378906,0.3065547049045563,0.38361304998397827,-0.24316838383674622,-0.1613769233226776,1724764606.1311245
1724764606.1816802,5.75,-0.022948503494262695,1724764606179682600,1724764606184671000,0.0,-0.0235294122248888,0.843137264251709,12.139625549316406,-0.008320734836161137,0.051454417407512665,69.57587432861328,330.95306396484375,0.3065502941608429,0.37309855222702026,-0.2427312433719635,-0.1614989936351776,1724764606.1846712
1724764606.2107549,5.800000000000001,-0.0020231723785393285,1724764606211751300,1724764606206196000,0.0,-0.0235294122248888,0.843137264251709,12.228919982910156,-0.008289936929941177,0.05179363861680031,69.86714172363281,330.9548034667969,0.3065482974052429,0.36822521686553955,-0.24255366623401642,-0.1615600287914276,1724764606.206196
1724764606.272888,5.8500000000000005,-0.014156246185302201,1724764606275879400,1724764606269688500,0.0,-0.0235294122248888,0.843137264251709,12.412555694580078,-0.008223242126405239,0.05248650535941124,70.47492980957031,330.95831298828125,0.30654412508010864,0.35803166031837463,-0.24215751886367798,-0.1616821140050888,1724764606.2696886
1724764606.3328078,5.9,-0.02407608032226527,1724764606340723600,1724764606333804000,0.0,-0.0235294122248888,0.843137264251709,12.690295219421387,-0.00811394490301609,0.05351737141609192,71.41690063476562,330.963623046875,0.30653780698776245,0.3421819806098938,-0.24151547253131866,-0.1618346869945526,1724764606.3338041
1724764606.3751621,5.95,-0.01643042564392072,1724764606382709000,1724764606376159600,0.0,-0.0235294122248888,0.843137264251709,12.786459922790527,-0.008072991855442524,0.05387482792139053,71.74947357177734,330.9654235839844,0.30653563141822815,0.3365728557109833,-0.2412969172000885,-0.1618957221508026,1724764606.3761597
1724764606.412246,6.0,-0.0035142898559570312,1724764606414241200,1724764606407247200,0.0,-0.0235294122248888,0.843137264251709,12.975099563598633,-0.007988360710442066,0.054579511284828186,72.41158294677734,330.96893310546875,0.30653131008148193,0.3253888189792633,-0.24090759456157684,-0.1619872748851776,1724764606.4072473
1724764606.477334,6.050000000000001,-0.01860232353210378,1724764606478840100,1724764606472346800,0.0,-0.0235294122248888,0.843137264251709,13.160861015319824,-0.007898343726992607,0.05526907369494438,73.07622528076172,330.9723815917969,0.30652713775634766,0.31413885951042175,-0.24050460755825043,-0.1620788425207138,1724764606.472347
1724764606.536688,6.1000000000000005,-0.027956390380858842,1724764606540819300,1724764606534691700,0.0,-0.0235294122248888,0.8039215803146362,13.444544792175293,-0.007746408227831125,0.05630876123905182,74.11699676513672,330.97747802734375,0.30652061104774475,0.29648253321647644,-0.2398625761270523,-0.1622314155101776,1724764606.5346918
1724764606.561767,6.15,-0.0030354022979732775,1724764606572652400,1724764606565757600,0.0,-0.0235294122248888,0.7372549176216125,13.53624439239502,-0.0076916832476854324,0.056635238230228424,74.46376037597656,330.9790954589844,0.3065180778503418,0.29058441519737244,-0.2396235167980194,-0.1622924506664276,1724764606.5657578
1724764606.6137588,6.2,-0.005027103424072088,1724764606624900200,1724764606618744400,0.0,-0.0235294122248888,0.6313725709915161,13.712265968322754,-0.007563840132206678,0.057173628360033035,75.16506958007812,330.9822692871094,0.30650946497917175,0.278580904006958,-0.238803893327713,-0.162384033203125,1724764606.6187444
1724764606.6651497,6.25,-0.006417989730834961,1724764606656154400,1724764606663153500,0.0,-0.0235294122248888,0.5176470875740051,13.799392700195312,-0.007477941457182169,0.05733020603656769,75.54136657714844,330.98394775390625,0.30650076270103455,0.272055447101593,-0.23794329166412354,-0.162445068359375,1724764606.6631534
1724764606.716875,6.300000000000001,-0.008143377304076438,1724764606708866500,1724764606714877800,0.0,-0.0235294122248888,0.4666666686534881,14.009613037109375,-0.007138430140912533,0.057046130299568176,76.5994873046875,330.98834228515625,0.30645132064819336,0.2531087398529053,-0.23320996761322021,-0.1625976413488388,1724764606.7148778
1724764606.7672029,6.3500000000000005,-0.008471155166625444,1724764606772205500,1724764606768710100,0.0,-0.0235294122248888,0.4470588266849518,14.1224365234375,-0.006807110738009214,0.05609768629074097,77.31609344482422,330.99114990234375,0.30639180541038513,0.23954400420188904,-0.22750675678253174,-0.1627502143383026,1724764606.7687101
1724764606.819695,6.4,-0.010963296890258434,1724764606825679700,1724764606822687100,0.0,0.0235294122248888,0.4549019634723663,14.220596313476562,-0.006388746667653322,0.05458647757768631,78.05927276611328,330.993896484375,0.30631181597709656,0.22473375499248505,-0.2198432832956314,-0.1629333347082138,1724764606.8226871
1724764606.869195,6.45,-0.010463285446166815,1724764606869194900,1724764606865696400,0.0,0.0235294122248888,0.4549019634723663,14.26381778717041,-0.001313192886300385,0.053720735013484955,78.42184448242188,330.99530029296875,0.3062690794467926,0.21927236020565033,-0.21575883030891418,-0.1623229831457138,1724764606.8656967
1724764606.9197497,6.5,-0.011018037796020508,1724764606920750800,1724764606918732900,0.0,0.0235294122248888,0.4549019634723663,14.379396438598633,0.006212431006133556,0.051141805946826935,79.48091888427734,330.99951171875,0.30614417791366577,0.21651560068130493,-0.20383332669734955,-0.1592101752758026,1724764606.918733
1724764606.9896827,6.550000000000001,-0.03095097541809011,1724764606995669800,1724764606993674800,0.0,0.0235294122248888,0.4549019634723663,14.452826499938965,0.007626262493431568,0.049527086317539215,80.20935821533203,331.0026550292969,0.30606672167778015,0.22312019765377045,-0.19640891253948212,-0.1577453464269638,1724764606.9936748
1724764607.016219,6.6000000000000005,-0.007487201690673295,1724764607017216400,1724764607015221300,0.0,0.0235294122248888,0.4549019634723663,14.490050315856934,0.007698437664657831,0.04878055676817894,80.59153747558594,331.0043029785156,0.30603063106536865,0.22862333059310913,-0.19295966625213623,-0.1572570502758026,1724764607.0152214
1724764607.0748446,6.65,-0.016112899780273082,1724764607081671100,1724764607079339400,0.0,0.0235294122248888,0.4549019634723663,14.598113059997559,0.0065117753110826015,0.04704839736223221,81.73908233642578,331.0094909667969,0.305944561958313,0.2513369619846344,-0.18472245335578918,-0.1564026027917862,1724764607.0793397
1724764607.1261346,6.7,-0.017402935028075994,1724764607124139700,1724764607122145700,0.0,0.0235294122248888,0.4549019634723663,14.630776405334473,0.005931911524385214,0.046665214002132416,82.09498596191406,331.01116943359375,0.3059246242046356,0.25983408093452454,-0.1828031688928604,-0.1562499850988388,1724764607.122146
1724764607.1711643,6.75,-0.012432575225830078,1724764607177148800,1724764607175154600,0.0,0.0235294122248888,0.4588235318660736,14.700196266174316,0.004573492798954248,0.046059705317020416,82.86237335205078,331.0148620605469,0.3058907687664032,0.2799024283885956,-0.1795656681060791,-0.1558532416820526,1724764607.1751547
1724764607.2306533,6.800000000000001,-0.021921586990355735,1724764607230653200,1724764607228635900,0.0,0.0235294122248888,0.4588235318660736,14.800283432006836,0.0026233703829348087,0.04562743380665779,83.98895263671875,331.0206604003906,0.3058602809906006,0.3125573694705963,-0.17666283249855042,-0.155181884765625,1724764607.228636
1724764607.2796676,6.8500000000000005,-0.020935916900634233,1724764607282661800,1724764607280667300,0.0,0.0235294122248888,0.4588235318660736,14.868629455566406,0.0014172359369695187,0.04556535556912422,84.76603698730469,331.02496337890625,0.3058491051197052,0.33665040135383606,-0.17559732496738434,-0.154693603515625,1724764607.2806675
1724764607.332656,6.9,-0.023924207687377574,1724764607335644800,1724764607333650600,0.0,-0.0235294122248888,0.4588235318660736,14.935173988342285,-0.004296462517231703,0.04563906043767929,85.52894592285156,331.02935791015625,0.30584338307380676,0.3592984676361084,-0.17504407465457916,-0.154815673828125,1724764607.3336508
1724764607.3850424,6.95,-0.026310729980468572,1724764607389562200,1724764607387037000,0.0,-0.0235294122248888,0.4588235318660736,15.004179000854492,-0.011031183414161205,0.04581357166171074,86.32695770263672,331.0339050292969,0.30584099888801575,0.3731287121772766,-0.17483234405517578,-0.1568603366613388,1724764607.387037
1724764607.4091682,7.0,-0.00043654441833496094,1724764607410199100,1724764607408663700,0.0,-0.0235294122248888,0.4588235318660736,15.034672737121582,-0.012603115290403366,0.04590364545583725,86.681884765625,331.0358581542969,0.3058406412601471,0.37645992636680603,-0.17480501532554626,-0.1576842963695526,1724764607.408664
1724764607.486778,7.050000000000001,-0.028046321868895774,1724764607483786000,1724764607484782800,0.0,-0.0235294122248888,0.4588235318660736,15.134490966796875,-0.014157494530081749,0.04622878134250641,87.85401916503906,331.04248046875,0.30584102869033813,0.37797337770462036,-0.17486649751663208,-0.159332275390625,1724764607.484783
1724764607.511005,7.1000000000000005,-0.002273225784301225,1724764607513996400,1724764607514994900,0.0,-0.0235294122248888,0.4549019634723663,15.166337013244629,-0.013934733346104622,0.04633347690105438,88.23189544677734,331.0446472167969,0.3058413863182068,0.3760310411453247,-0.1748938113451004,-0.1595764011144638,1724764607.514995
1724764607.563863,7.15,-0.0051313400268551135,1724764607566855100,1724764607567853200,0.0,-0.0235294122248888,0.4549019634723663,15.232816696166992,-0.012886377051472664,0.04654332622885704,89.02996063232422,331.0492858886719,0.30584192276000977,0.3689807653427124,-0.1749279648065567,-0.1599731296300888,1724764607.5678535
1724764607.6147637,7.2,-0.006032037734985174,1724764607609776000,1724764607611770600,0.0,-0.0235294122248888,0.4549019634723663,15.263574600219727,-0.012246476486325264,0.04663597047328949,89.40300750732422,331.05145263671875,0.30584198236465454,0.3645596504211426,-0.1749279648065567,-0.1601562350988388,1724764607.6117706
1724764607.6666386,7.25,-0.007906913757324219,1724764607662649200,1724764607664643400,0.0,-0.0235294122248888,0.4431372582912445,15.329127311706543,-0.010735742747783661,0.04682270810008049,90.20542907714844,331.0559387207031,0.3058415651321411,0.35310089588165283,-0.1748938113451004,-0.1604919135570526,1724764607.6646435
1724764607.7176363,7.300000000000001,-0.008904647827147727,1724764607715641100,1724764607717636300,0.0,-0.0235294122248888,0.3137255012989044,15.422554969787598,-0.008511916734278202,0.047045063227415085,91.39551544189453,331.06256103515625,0.3058391511440277,0.3324018716812134,-0.17468208074569702,-0.1611633002758026,1724764607.7176363
1724764607.7696617,7.3500000000000005,-0.010929965972899858,1724764607768642400,1724764607771696500,0.0,-0.0235294122248888,0.1803921610116958,15.46928596496582,-0.007114794105291367,0.04692045971751213,92.20582580566406,331.0668640136719,0.30582931637763977,0.31634706258773804,-0.1737053543329239,-0.1617126166820526,1724764607.7716966
1724764607.8196816,7.4,-0.010949945449828746,1724764607820678600,1724764607824668500,0.0,-0.0235294122248888,0.1098039224743843,15.489845275878906,-0.005854302551597357,0.0462520532310009,92.98770904541016,331.0708923339844,0.3058009743690491,0.2994672656059265,-0.17102110385894775,-0.1622619479894638,1724764607.8246684
1724764607.8737018,7.45,-0.01497011184692365,1724764607873701800,1724764607876693600,0.0,-0.0235294122248888,0.0784313753247261,15.487818717956543,-0.0046119666658341885,0.04483289271593094,93.80619049072266,331.0749206542969,0.3057466149330139,0.2803618311882019,-0.16580283641815186,-0.162872314453125,1724764607.8766937
1724764607.9272146,7.5,-0.01848292350769043,1724764607927214600,1724764607930738800,0.0,-0.0235294122248888,0.0901960805058479,15.466333389282227,-0.0034262959379702806,0.042783744633197784,94.63712310791016,331.07879638671875,0.30566948652267456,0.25955164432525635,-0.15844671428203583,-0.163543701171875,1724764607.9307387
1724764607.995733,7.550000000000001,-0.03700132369995046,1724764607990745600,1724764607994735100,0.0,-0.0235294122248888,0.1137254908680915,15.42580509185791,-0.0020782260689884424,0.03980569913983345,95.67973327636719,331.08331298828125,0.30555853247642517,0.23167648911476135,-0.14782577753067017,-0.1643371433019638,1724764607.9947352
1724764608.021664,7.6000000000000005,-0.01293220520019478,1724764608022661600,1724764608026650200,0.0,-0.0235294122248888,0.1294117718935012,15.407937049865723,-0.0016035839216783643,0.03867597132921219,96.09322357177734,331.0849914550781,0.30551618337631226,0.22017739713191986,-0.14379596710205078,-0.164642333984375,1724764608.0266502
1724764608.0732508,7.65,-0.014519071578979137,1724764608065645000,1724764608068638300,0.0,-0.0235294122248888,0.1333333402872085,15.390838623046875,-0.0011902792612090707,0.03766382858157158,96.48368835449219,331.0865173339844,0.3054787516593933,0.20912626385688782,-0.14019645750522614,-0.1649169772863388,1724764608.0686383
1724764608.1251533,7.7,-0.016421604156493963,1724764608118727300,1724764608123157800,0.0,-0.0235294122248888,0.1333333402872085,15.35627555847168,-0.0004535105254035443,0.03588370233774185,97.27799224853516,331.0894470214844,0.30541256070137024,0.18615847826004028,-0.13387852907180786,-0.165435791015625,1724764608.123158
1724764608.1747928,7.75,-0.016061067581176758,1724764608171798300,1724764608175790700,0.0,-0.0235294122248888,0.1372549086809158,15.306035995483398,0.00038940669037401676,0.03401120379567146,98.45418548583984,331.09326171875,0.3053438067436218,0.15124477446079254,-0.12732155621051788,-0.1661376655101776,1724764608.1757908
1724764608.2250175,7.800000000000001,-0.016285848617553,1724764608225017500,1724764608229537700,0.0,-0.0235294122248888,0.1411764770746231,15.274520874023438,0.0007921842043288052,0.03326413780450821,99.21414947509766,331.09539794921875,0.3053171634674072,0.1282813847064972,-0.12478754669427872,-0.1665343940258026,1724764608.229538
1724764608.2773395,7.8500000000000005,-0.018607759475707475,1724764608277339500,1724764608282193100,0.0,-0.0235294122248888,0.1411764770746231,15.242717742919922,0.0011098247487097979,0.0327964648604393,100.00019073486328,331.09722900390625,0.3053015470504761,0.10429888218641281,-0.1232917383313179,-0.1668701022863388,1724764608.2821932
1724764608.3276854,7.9,-0.0189536571502682,1724764608331207000,1724764608336192900,0.0,-0.0235294122248888,0.1411764770746231,15.21200942993164,0.0013397157890722156,0.03256412222981453,100.77226257324219,331.0987854003906,0.30529510974884033,0.0805753692984581,-0.1226770207285881,-0.1671447604894638,1724764608.336193
1724764608.3806899,7.95,-0.021958160400390447,1724764608373789000,1724764608379281400,0.0,-0.0235294122248888,0.1450980454683303,15.180791854858398,0.00150751369073987,0.03248997777700424,101.56742095947266,331.10003662109375,0.3052946627140045,0.05601489171385765,-0.12264969944953918,-0.1673583835363388,1724764608.3792815
1724764608.4292953,8.0,-0.020563602447509766,1724764608426794900,1724764608431723500,0.0,-0.0235294122248888,0.1490196138620376,15.15191650390625,0.0016128984279930592,0.03251051902770996,102.31925201416016,331.10089111328125,0.3052978515625,0.03270856291055679,-0.12295705825090408,-0.16754145920276642,1724764608.4317236
1724764608.4802108,8.05,-0.021479082107543235,1724764608481211200,1724764608485200200,0.0,-0.0235294122248888,0.1490196138620376,15.122930526733398,0.001677155145443976,0.03258279711008072,103.09612274169922,331.1014709472656,0.3053032159805298,0.008571957238018513,-0.12346932291984558,-0.16766357421875,1724764608.4852002
1724764608.532191,8.1,-0.02345933914184606,1724764608523334500,1724764608527324300,0.0,-0.0235294122248888,0.1490196138620376,15.108332633972168,0.0016946097603067756,0.032646071165800095,103.49449157714844,331.10162353515625,0.30530649423599243,-0.0038146970327943563,-0.12381765991449356,-0.1677245944738388,1724764608.5273244
1724764608.5751755,8.15,-0.01644382476806605,1724764608566658100,1724764608570186100,0.0,-0.0235294122248888,0.1490196138620376,15.081099510192871,0.0017112090718001127,0.0327429473400116,104.24713897705078,331.1017761230469,0.305312842130661,-0.0272521935403347,-0.1244187206029892,-0.1678161770105362,1724764608.5701861
1724764608.6308515,8.200000000000001,-0.02211980819702042,1724764608630851700,1724764608634843400,0.0,-0.0235294122248888,0.1490196138620376,15.040937423706055,0.0016919125337153673,0.032880865037441254,105.37297821044922,331.101318359375,0.30532175302505493,-0.062316883355379105,-0.1252724975347519,-0.1679076999425888,1724764608.6348436
1724764608.6868649,8.25,-0.028133153915405273,1724764608683873400,1724764608689366100,0.0,-0.0235294122248888,0.1490196138620376,15.014751434326172,0.0016623500268906355,0.03294486552476883,106.11431121826172,331.10064697265625,0.3053266406059265,-0.0854186937212944,-0.12573695182800293,-0.1679382175207138,1724764608.689366
1724764608.7120585,8.3,-0.0033268451690666723,1724764608705658900,1724764608711061600,0.0,-0.0235294122248888,0.1490196138620376,15.000088691711426,0.0016414179699495435,0.032968878746032715,106.53138732910156,331.1001892089844,0.30532896518707275,-0.0984191820025444,-0.1259486824274063,-0.167938232421875,1724764608.7110617
1724764608.7820294,8.35,-0.0232976913452152,1724764608780036000,1724764608785020900,0.0,-0.0235294122248888,0.1490196138620376,14.961030006408691,0.0015757493674755096,0.03300166875123978,107.64810943603516,331.0983581542969,0.30533385276794434,-0.1332397311925888,-0.12640629708766937,-0.1679687350988388,1724764608.785021
1724764608.810726,8.4,-0.001994228363036754,1724764608801053600,1724764608806549500,0.0,-0.0235294122248888,0.1490196138620376,14.961030006408691,0.0015757493674755096,0.03300166875123978,107.64810943603516,331.0983581542969,0.30533385276794434,-0.1332397311925888,-0.12640629708766937,-0.1679687350988388,1724764608.8065495
1724764608.864039,8.450000000000001,-0.005307245254515536,1724764608854770900,1724764608860048600,0.0,-0.0235294122248888,0.1529411822557449,14.921573638916016,0.001496471930295229,0.03300299122929573,108.7833480834961,331.0958251953125,0.3053370416164398,-0.1686401218175888,-0.1267341524362564,-0.1679687350988388,1724764608.8600488
1724764608.927648,8.5,-0.01891636848449707,1724764608918704800,1724764608925654000,0.0,-0.0705882385373115,0.1529411822557449,14.896989822387695,-0.0029351264238357544,0.032992105931043625,109.49903106689453,331.0937805175781,0.30533841252326965,-0.192596435546875,-0.12685710191726685,-0.16851806640625,1724764608.9256542
1724764608.9818134,8.55,-0.023081731796263938,1724764608972668800,1724764608978653000,0.0,-0.0705882385373115,0.1529411822557449,14.871991157531738,-0.00864177942276001,0.03298623487353325,110.23966217041016,331.0910339355469,0.30533966422080994,-0.2266235053539276,-0.12698687613010406,-0.1708984225988388,1724764608.978653
1724764609.0296764,8.6,-0.02094473838806188,1724764609024160100,1724764609031674400,0.0,-0.0705882385373115,0.1529411822557449,14.835838317871094,-0.011094601824879646,0.032953325659036636,111.32730865478516,331.08599853515625,0.3053414523601532,-0.2906189262866974,-0.12713713943958282,-0.173675537109375,1724764609.0316744
1724764609.0607715,8.65,-0.0020397663116451525,1724764609056197400,1724764609063762900,0.0,-0.0705882385373115,0.1529411822557449,14.824987411499023,-0.011045875959098339,0.03294520080089569,111.65650939941406,331.0842590332031,0.30534204840660095,-0.3124999701976776,-0.12719860672950745,-0.1742248684167862,1724764609.0637631
1724764609.119967,8.700000000000001,-0.011235284805296786,1724764609108819700,1724764609116326900,0.0,-0.0705882385373115,0.1529411822557449,14.801535606384277,-0.010250761173665524,0.032931070774793625,112.37147521972656,331.0799865722656,0.3053433299064636,-0.3632201850414276,-0.1273488700389862,-0.17510986328125,1724764609.116327
1724764609.1641884,8.75,-0.005456686019897461,1724764609152663600,1724764609159152400,0.0,-0.0235294122248888,0.1529411822557449,14.778738021850586,-0.009002760984003544,0.03289816901087761,113.07017517089844,331.0753173828125,0.30534452199935913,-0.416107177734375,-0.12743766605854034,-0.1757507026195526,1724764609.1591525
1724764609.2392943,8.8,-0.030562591552733664,1724764609236796300,1724764609244660100,0.0,-0.0235294122248888,0.1529411822557449,14.73464584350586,0.004937919322401285,0.03281259164214134,114.43099212646484,331.0651550292969,0.3053467273712158,-0.5068359375,-0.12764939665794373,-0.1729736328125,1724764609.2446604
1724764609.2656674,8.85,-0.006935739517212269,1724764609258665100,1724764609265667400,0.0,-0.0235294122248888,0.1529411822557449,14.723206520080566,0.006449730601161718,0.032799940556287766,114.7855453491211,331.0622863769531,0.3053472340106964,-0.52691650390625,-0.12771770358085632,-0.1723022609949112,1724764609.2656674
1724764609.3341782,8.9,-0.02544651031494105,1724764609321244300,1724764609328734900,0.0,-0.0235294122248888,0.1529411822557449,14.700387954711914,0.007986483164131641,0.032768476754426956,115.49443054199219,331.0562438964844,0.3053482472896576,-0.5638123154640198,-0.12780649960041046,-0.1714477688074112,1724764609.328735
1724764609.3588324,8.950000000000001,-0.00010066032409561387,1724764609353336800,1724764609361214300,0.0,-0.0235294122248888,0.1529411822557449,14.67834758758545,0.008249309845268726,0.03273432329297066,116.18157958984375,331.0499572753906,0.30534908175468445,-0.5962218642234802,-0.12786796689033508,-0.171112060546875,1724764609.3612144
1724764609.4342823,9.0,-0.02555060386657715,1724764609429292900,1724764609435279300,0.0,-0.0235294122248888,0.1450980454683303,14.646236419677734,0.007527512032538652,0.03268903121352196,117.1865234375,331.04010009765625,0.30535009503364563,-0.6391906142234802,-0.127963587641716,-0.170989990234375,1724764609.4352794
1724764609.462682,9.05,-0.003950309753417258,1724764609460687800,1724764609467668200,0.0,-0.0235294122248888,0.1333333402872085,14.635018348693848,0.0071216668002307415,0.03267199546098709,117.53611755371094,331.03643798828125,0.3053504228591919,-0.653167724609375,-0.12799090147018433,-0.1709899604320526,1724764609.4676683
1724764609.5131974,9.1,-0.004465723037720082,1724764609513197200,1724764609510203000,0.0,-0.0235294122248888,0.1333333402872085,14.612346649169922,0.006272329483181238,0.032632190734148026,118.21217346191406,331.0291442871094,0.30535057187080383,-0.6791687607765198,-0.12802505493164062,-0.1708984375,1724764609.510203
1724764609.5857,9.15,-0.026968336105346324,1724764609586697500,1724764609583706000,0.0,0.0235294122248888,0.1333333402872085,14.575845718383789,0.009330575354397297,0.0324871800839901,119.21925354003906,331.0177001953125,0.3053482472896576,-0.7143250107765198,-0.12780649960041046,-0.1700744777917862,1724764609.5837061
