frame_timestamp_original,frame_timestamp_new,residual,time_hardwaremanager,time_carla,brake,steer,throttle,ego_vx,ego_vy,ego_vz,ego_x,ego_y,ego_z,ego_yaw,ego_pitch,ego_roll,time_carla_s
1724764912.679035,0.0,0.0,1724764912675534900,1724764912684027000,-1.0,0.0,1.0,-5.514783424587222e-06,3.064119300688617e-05,-0.004053605254739523,51.571937561035156,330.8496398925781,0.3058609068393707,6.4220130298053846e-06,-0.13016290962696075,-0.1621398627758026,1724764912.684027
1724764912.7397892,0.05,-0.010754299163818357,1724764912740787500,1724764912737746000,-1.0,0.0,1.0,-1.28936990222428e-05,4.231284765410237e-05,-0.0036754035390913486,51.571937561035156,330.8496398925781,0.3056856393814087,5.311541826813482e-06,-0.13100984692573547,-0.161590576171875,1724764912.737746
1724764912.804545,0.1,-0.025509977340698237,1724764912805542000,1724764912800556200,-1.0,0.0,1.0,-1.6315809261868708e-05,3.403726077522151e-05,-0.002209927188232541,51.571937561035156,330.8496398925781,0.3054891526699066,3.879432824760443e-06,-0.1325329840183258,-0.160858154296875,1724764912.8005564
1724764912.8297327,0.15000000000000002,-0.0006977081298827903,1724764912838711300,1724764912831729700,-1.0,0.0,1.0,-1.5900091966614127e-05,-1.5627738321200013e-05,-0.0017804979579523206,51.571937561035156,330.8496398925781,0.30544614791870117,3.555006742317346e-06,-0.13296328485012054,-0.160675048828125,1724764912.83173
1724764912.8807864,0.2,-0.0017514705657958873,1724764912882781000,1724764912883779700,-1.0,0.0,1.0,-1.3897080862079747e-05,-1.134764443122549e-05,-0.0009971432154998183,51.571937561035156,330.8496398925781,0.30537351965904236,2.905972678490798e-06,-0.13378290832042694,-0.160369873046875,1724764912.8837798
1724764912.9355638,0.25,-0.0065288543701171875,1724764912936561300,1724764912937559300,-1.0,0.0,1.0,-9.586973646946717e-06,-8.750848792260513e-06,-0.0010141265811398625,51.571937561035156,330.8496398925781,0.30531951785087585,2.438230239931727e-06,-0.13446593284606934,-0.1601562350988388,1724764912.9375594
1724764912.9848542,0.30000000000000004,-0.005819272994995073,1724764912980864600,1724764912980864600,-1.0,0.0,1.0,-1.028111273626564e-05,-4.70377062811167e-06,6.850556383142248e-05,51.571937561035156,330.8496398925781,0.30532366037368774,2.2842700673209038e-06,-0.13470497727394104,-0.16009521484375,1724764912.9808645
1724764913.0357301,0.35000000000000003,-0.006695175170898404,1724764913034733600,1724764913034733600,-1.0,0.0,1.0,0.0,0.0,0.0,51.571937561035156,330.8496398925781,0.30530014634132385,2.0324600882304367e-06,-0.13507381081581116,-0.1599731296300888,1724764913.0347338
1724764913.0865252,0.4,-0.007490253448486306,1724764913087522400,1724764913086525100,-1.0,0.0,1.0,6.550574767061335e-07,-2.313209961357643e-06,-0.0004626294248737395,51.571937561035156,330.8496398925781,0.3052879571914673,2.0324600882304367e-06,-0.13507381081581116,-0.1599731296300888,1724764913.0865252
1724764913.1356883,0.45,-0.006653356552124012,1724764913140750100,1724764913139753200,-1.0,0.0,1.0,-9.691477771411883e-07,-4.108568418814684e-07,0.00022975035244598985,51.571937561035156,330.8496398925781,0.3052885830402374,1.8789560272125527e-06,-0.13516943156719208,-0.1599120944738388,1724764913.1397533
1724764913.1885066,0.5,-0.009471654891967773,1724764913194001700,1724764913193004600,-1.0,0.0,1.0,1.235985962466657e-07,-1.5393146668429836e-06,-0.00021349611051846296,51.571937561035156,330.8496398925781,0.3052833378314972,1.8789560272125527e-06,-0.13516943156719208,-0.1599120944738388,1724764913.1930046
1724764913.238623,0.55,-0.009587955474853471,1724764913237624300,1724764913235630200,-1.0,0.0,1.0,-1.2699659919235273e-06,2.757533366093412e-07,0.000394983624573797,51.571937561035156,330.8496398925781,0.3052936792373657,1.8789560272125527e-06,-0.13516943156719208,-0.1599120944738388,1724764913.2356303
1724764913.292533,0.6000000000000001,-0.013497972488403231,1724764913291535200,1724764913287524300,-1.0,0.0,1.0,-6.401523222621108e-08,-8.499118848703802e-07,-8.714704017620534e-05,51.571937561035156,330.8496398925781,0.3052893877029419,1.8789560272125527e-06,-0.13516943156719208,-0.1599120944738388,1724764913.2875245
1724764913.3342335,0.65,-0.005198574066162087,1724764913334233700,1724764913331241700,-1.0,0.0,1.0,-1.150424282059248e-06,6.970569188524678e-07,0.0004127712163608521,51.571937561035156,330.8496398925781,0.30528756976127625,1.8789560272125527e-06,-0.13516943156719208,-0.1599120944738388,1724764913.3312418
1724764913.3870625,0.7000000000000001,-0.008027601242065363,1724764913388568800,1724764913384072900,-1.0,0.0,1.0,-3.013505249782611e-07,-5.93354236855248e-08,7.951048610266298e-05,51.571937561035156,330.8496398925781,0.3052954077720642,1.6381540035581565e-06,-0.13522407412528992,-0.1598205417394638,1724764913.384073
1724764913.4400666,0.75,-0.011031627655029297,1724764913442063500,1724764913437136900,-1.0,0.0,1.0,4.096897328054183e-07,-7.605019050060946e-07,-0.00020531548943836242,51.571937561035156,330.8496398925781,0.305294930934906,1.6381540035581565e-06,-0.13522407412528992,-0.1598205417394638,1724764913.437137
1724764913.491593,0.8,-0.012557935714721635,1724764913494586200,1724764913492590400,-1.0,0.0,1.0,-4.1037523601517023e-07,3.906787355845154e-07,0.0001715316902846098,51.571937561035156,330.8496398925781,0.30530238151550293,1.6381540035581565e-06,-0.13522407412528992,-0.1598205417394638,1724764913.4925904
1724764913.551136,0.8500000000000001,-0.022101068496704013,1724764913548501300,1724764913546505600,-1.0,0.0,1.0,-7.276440214809554e-07,7.59742988520884e-07,0.00031063181813806295,51.571937561035156,330.8496398925781,0.30529776215553284,1.6381540035581565e-06,-0.13522407412528992,-0.1598205417394638,1724764913.546506
1724764913.6018286,0.9,-0.022793626785278298,1724764913602824800,1724764913599834500,-1.0,0.0,1.0,-6.070136038260898e-08,1.216563383366065e-08,2.9408793125185184e-05,51.571937561035156,330.8496398925781,0.30529990792274475,1.6381540035581565e-06,-0.13522407412528992,-0.1598205417394638,1724764913.5998347
1724764913.653079,0.9500000000000001,-0.02404408454895013,1724764913646038700,1724764913652080500,-1.0,0.0,1.0,-1.0800246172948391e-06,1.2255006822670111e-06,0.00046530988765880466,51.571937561035156,330.8496398925781,0.3053111433982849,1.6381540035581565e-06,-0.13522407412528992,-0.1598205417394638,1724764913.6520805
1724764913.7040377,1.0,-0.025002717971801758,1724764913701045700,1724764913705034100,-1.0,0.0,1.0,5.953637014499691e-07,-7.024237334007921e-07,-0.000248207914410159,51.571937561035156,330.8496398925781,0.30530017614364624,1.6381540035581565e-06,-0.13522407412528992,-0.1598205417394638,1724764913.705034
1724764913.7511895,1.05,-0.022154521942138627,1724764913745149800,1724764913750176500,-1.0,0.0,1.0,-5.166435244063905e-07,6.301465305114107e-07,0.00022086586977820843,51.571937561035156,330.8496398925781,0.3053246736526489,1.6381540035581565e-06,-0.13522407412528992,-0.1598205417394638,1724764913.7501767
1724764913.8040447,1.1,-0.025009775161743075,1724764913799036200,1724764913803047500,-1.0,0.0,1.0,5.681297921000805e-07,-6.387478492797527e-07,-0.00023875865736044943,51.571937561035156,330.8496398925781,0.30531489849090576,1.6381540035581565e-06,-0.13522407412528992,-0.1598205417394638,1724764913.8030474
1724764913.8531349,1.1500000000000001,-0.024099922180175648,1724764913852137300,1724764913856128400,-1.0,0.0,1.0,2.6504616812417225e-07,-3.478540975265787e-07,-0.00010995798947988078,51.571937561035156,330.8496398925781,0.30531981587409973,1.6381540035581565e-06,-0.13522407412528992,-0.1598205417394638,1724764913.8561287
1724764913.87957,1.2000000000000002,-0.0005350589752195489,1724764913874050000,1724764913878549000,-1.0,0.0,1.0,9.38603221811718e-08,-1.0218148815965833e-07,-4.0041057218331844e-05,51.571937561035156,330.8496398925781,0.30531981587409973,1.6381540035581565e-06,-0.13522407412528992,-0.1598205417394638,1724764913.878549
1724764913.9550374,1.25,-0.02600240707397461,1724764913950023400,1724764913953042100,-1.0,0.0,1.0,1.1199497862435237e-07,-1.085079688323276e-07,-4.685930616687983e-05,51.571937561035156,330.8496398925781,0.3053281605243683,1.6381540035581565e-06,-0.13522407412528992,-0.1598205417394638,1724764913.9530423
1724764913.9800475,1.3,-0.0010125160217284712,1724764913983043300,1724764913985036700,-1.0,0.0,1.0,1.2627957346467156e-07,-1.684356050191127e-07,-5.2599763876060024e-05,51.571937561035156,330.8496398925781,0.3053225874900818,1.6381540035581565e-06,-0.13522407412528992,-0.1598205417394638,1724764913.9850368
1724764914.0295372,1.35,-0.0005022525787352627,1724764914026019700,1724764914027016800,-1.0,0.0,1.0,-6.800556207053887e-07,7.702863058511866e-07,0.0002898919046856463,51.571937561035156,330.8496398925781,0.3053305149078369,1.6381540035581565e-06,-0.13522407412528992,-0.1598205417394638,1724764914.0270169
1724764914.1046531,1.4000000000000001,-0.025618171691894398,1724764914102658000,1724764914102658000,-1.0,0.0,1.0,-3.4662534176277404e-07,4.159532807079813e-07,0.0001487648842157796,51.571937561035156,330.8496398925781,0.3053283393383026,1.6381540035581565e-06,-0.13522407412528992,-0.1598205417394638,1724764914.1026583
1724764914.1304133,1.4500000000000002,-0.0013783454895017755,1724764914134405400,1724764914134405400,-1.0,0.0,1.0,9.720305342852953e-07,-1.1187654536115588e-06,-0.0004108609864488244,51.571937561035156,330.8496398925781,0.30531495809555054,1.6381540035581565e-06,-0.13522407412528992,-0.1598205417394638,1724764914.1344054
1724764914.179809,1.5,-0.0007741451263427734,1724764914188297300,1724764914177206600,-1.0,0.0,1.0,1.4468686515556328e-07,-1.5691335875089862e-07,-6.30799331702292e-05,51.571937561035156,330.8496398925781,0.3053242266178131,1.6381540035581565e-06,-0.13522407412528992,-0.1598205417394638,1724764914.1772065
1724764914.2325492,1.55,-0.0035142421722411665,1724764914220714400,1724764914230553500,-1.0,0.0,1.0,9.280142876377795e-07,-1.1049911563532078e-06,-0.00039154139813035727,51.571937561035156,330.8496398925781,0.30531272292137146,1.6381540035581565e-06,-0.13522407412528992,-0.1598205417394638,1724764914.2305536
1724764914.2835453,1.6,-0.00451030731201163,1724764914273040500,1724764914282548300,-1.0,0.0,1.0,-3.6421640009498546e-11,-1.7947940023077535e-08,-4.1767161746975034e-06,51.571937561035156,330.8496398925781,0.3053116798400879,1.6381540035581565e-06,-0.13522407412528992,-0.1598205417394638,1724764914.2825484
1724764914.3316526,1.6500000000000001,-0.002617692947387562,1724764914326623100,1724764914334644600,-1.0,0.0,1.0,-9.835292757998104e-07,1.1319236818962963e-06,0.0004175734065938741,51.571937561035156,330.8496398925781,0.3053179085254669,1.6381540035581565e-06,-0.13522407412528992,-0.1598205417394638,1724764914.3346446
1724764914.3837323,1.7000000000000002,-0.004697370529174627,1724764914381738100,1724764914386724200,-1.0,0.0,1.0,6.529136697963622e-08,-9.84861472375087e-08,-3.1010640668682754e-05,51.571937561035156,330.8496398925781,0.30531612038612366,1.6381540035581565e-06,-0.13522407412528992,-0.1598205417394638,1724764914.3867242
1724764914.4335608,1.75,-0.004525899887084961,1724764914423846100,1724764914429405300,-1.0,0.0,1.0,-7.760684752611269e-07,9.430822274225648e-07,0.00033452024217695,51.571937561035156,330.8496398925781,0.30532413721084595,1.6381540035581565e-06,-0.13522407412528992,-0.1598205417394638,1724764914.4294052
1724764914.4856029,1.8,-0.006567907333373979,1724764914479617900,1724764914481613500,-1.0,0.0,1.0,-2.3220778189170233e-08,2.2287109047169906e-08,6.999304787314031e-06,51.571937561035156,330.8496398925781,0.3053082525730133,1.6381540035581565e-06,-0.13522407412528992,-0.1598205417394638,1724764914.4816136
1724764914.5362468,1.85,-0.007211828231811435,1724764914533254100,1724764914535249600,-1.0,0.0,1.0,-6.74615876050666e-07,7.91188767834683e-07,0.0002917129604611546,51.571937561035156,330.8496398925781,0.30531394481658936,1.6381540035581565e-06,-0.13522407412528992,-0.1598205417394638,1724764914.5352497
1724764914.5855765,1.9000000000000001,-0.006541585922241078,1724764914597672600,1724764914588568200,-1.0,0.0,1.0,-1.0130478358405526e-06,1.2147032748544007e-06,0.0004275574756320566,51.571937561035156,330.8496398925781,0.305318146944046,1.6381540035581565e-06,-0.13522407412528992,-0.1598205417394638,1724764914.5885684
1724764914.6375124,1.9500000000000002,-0.0084774971008299,1724764914641083200,1724764914641083200,-1.0,0.0,1.0,2.933715563813166e-07,-3.429964010592812e-07,-0.00012292673636693507,51.571937561035156,330.8496398925781,0.30531030893325806,1.6381540035581565e-06,-0.13522407412528992,-0.1598205417394638,1724764914.6410832
1724764914.687029,2.0,-0.007993936538696289,1724764914685034900,1724764914684037900,-1.0,0.0,1.0,-6.176643978506036e-07,7.090004601195687e-07,0.00025975340395234525,51.571937561035156,330.8496398925781,0.3053172826766968,1.6381540035581565e-06,-0.13522407412528992,-0.1598205417394638,1724764914.684038
1724764914.739592,2.0500000000000003,-0.0105571269989011,1724764914730091300,1724764914736076500,-1.0,0.0,1.0,-5.667670279763115e-07,6.454017693613423e-07,0.00024080958974082023,51.571937561035156,330.8496398925781,0.30531829595565796,1.6381540035581565e-06,-0.13522407412528992,-0.1598205417394638,1724764914.7360766
1724764914.7898037,2.1,-0.010768795013427646,1724764914783190600,1724764914788803600,-1.0,0.0,1.0,-1.9853324317864463e-07,2.3345008060005057e-07,8.811163570499048e-05,51.571937561035156,330.8496398925781,0.3053293824195862,1.6381540035581565e-06,-0.13522407412528992,-0.1598205417394638,1724764914.7888036
1724764914.838528,2.15,-0.009492969512939542,1724764914836535400,1724764914841630000,-1.0,0.0,1.0,-1.2498144315031823e-06,1.4700902966069407e-06,0.000526560703292489,51.571937561035156,330.8496398925781,0.30533507466316223,1.6381540035581565e-06,-0.13522407412528992,-0.1598205417394638,1724764914.84163
1724764914.8907747,2.2,-0.01173977851867658,1724764914888639900,1724764914893768500,-1.0,0.0,1.0,7.729256594757317e-07,-8.828371846902883e-07,-0.0003275847702752799,51.571937561035156,330.8496398925781,0.3053174912929535,1.6381540035581565e-06,-0.13522407412528992,-0.1598205417394638,1724764914.8937685
1724764914.940067,2.25,-0.0110321044921875,1724764914932091700,1724764914936080600,-1.0,0.0,1.0,2.0391146904330526e-07,-2.2750417372208176e-07,-8.641402382636443e-05,51.571937561035156,330.8496398925781,0.3053151071071625,1.6381540035581565e-06,-0.13522407412528992,-0.1598205417394638,1724764914.9360807
1724764914.991641,2.3000000000000003,-0.012606096267699929,1724764914987591000,1724764914990643500,-1.0,0.0,1.0,1.5209043624508922e-07,-2.0284251434077305e-07,-6.332762859528884e-05,51.571937561035156,330.8496398925781,0.3053162097930908,1.6381540035581565e-06,-0.13522407412528992,-0.1598205417394638,1724764914.9906435
1724764915.0410626,2.35,-0.012027645111083896,1724764915042060100,1724764915043056500,-1.0,0.0,1.0,4.142639298265749e-08,1.0396990823835495e-08,-1.2043917195114773e-05,51.571937561035156,330.8496398925781,0.30532366037368774,1.6381540035581565e-06,-0.13522407412528992,-0.1598205417394638,1724764915.0430565
1724764915.0899696,2.4000000000000004,-0.010934686660766246,1724764915094955300,1724764915094955300,-1.0,0.0,1.0,-8.478342579110176e-07,1.0046404668173636e-06,0.00036170746898278594,51.571937561035156,330.8496398925781,0.3053247332572937,1.6381540035581565e-06,-0.13522407412528992,-0.1598205417394638,1724764915.0949554
1724764915.1420288,2.45,-0.012993860244750799,1724764915140030800,1724764915147015100,-1.0,0.0,1.0,1.5244326334595826e-07,-1.976852530560791e-07,-6.867726187920198e-05,51.571937561035156,330.8496398925781,0.3053223788738251,1.6381540035581565e-06,-0.13522407412528992,-0.1598205417394638,1724764915.1470153
1724764915.1915553,2.5,-0.012520313262939453,1724764915183044700,1724764915190558200,-1.0,0.0,1.0,-7.269490538419632e-07,8.174612844413787e-07,0.0003090352693106979,51.571937561035156,330.8496398925781,0.30532997846603394,1.6381540035581565e-06,-0.13522407412528992,-0.1598205417394638,1724764915.1905584
1724764915.2435524,2.5500000000000003,-0.014517498016357155,1724764915236530800,1724764915243552400,-1.0,0.0,1.0,4.7610535602871096e-07,-5.826678943776642e-07,-0.000201559261768125,51.571937561035156,330.8496398925781,0.30531996488571167,1.6381540035581565e-06,-0.13522407412528992,-0.1598205417394638,1724764915.2435527
1724764915.2925239,2.6,-0.013488912582397372,1724764915289533100,1724764915296513600,-1.0,0.0,1.0,-2.9668212775391112e-08,4.766571848335843e-08,1.3703051990887616e-05,51.571937561035156,330.8496398925781,0.3053266406059265,1.6381540035581565e-06,-0.13522407412528992,-0.1598205417394638,1724764915.2965136
1724764915.3426409,2.6500000000000004,-0.013605928421020153,1724764915333561500,1724764915339653400,-1.0,0.0,1.0,7.730048423582048e-07,-9.002084198073135e-07,-0.000326621753629297,51.571937561035156,330.8496398925781,0.30531781911849976,1.6381540035581565e-06,-0.13522407412528992,-0.1598205417394638,1724764915.3396535
1724764915.3936949,2.7,-0.014659929275512518,1724764915386520700,1724764915392697700,-1.0,0.0,1.0,5.68485688745568e-07,-6.64360982227663e-07,-0.00024008403124753386,51.571937561035156,330.8496398925781,0.30531081557273865,1.6381540035581565e-06,-0.13522407412528992,-0.1598205417394638,1724764915.3926978
1724764915.444961,2.75,-0.015926122665405273,1724764915439974100,1724764915443964400,-1.0,0.0,1.0,-3.361960239089967e-07,3.8329133644765534e-07,0.00014464989362750202,51.571937561035156,330.8496398925781,0.30530932545661926,1.6381540035581565e-06,-0.13522407412528992,-0.1598205417394638,1724764915.4439645
1724764915.4967089,2.8000000000000003,-0.01767392158508274,1724764915494713000,1724764915496708900,-1.0,0.0,1.0,-4.042086914068932e-07,4.4940799170944956e-07,0.00017375353490933776,51.571937561035156,330.8496398925781,0.30531081557273865,1.6381540035581565e-06,-0.13522407412528992,-0.1598205417394638,1724764915.4967089
1724764915.546667,2.85,-0.017632150650024325,1724764915548661200,1724764915550141400,-1.0,0.0,1.0,9.550479944664403e-07,-1.1380266187188681e-06,-0.0004099466314073652,51.571937561035156,330.8496398925781,0.30530279874801636,1.6381540035581565e-06,-0.13522407412528992,-0.1598205417394638,1724764915.5501416
1724764915.5955849,2.9000000000000004,-0.016549921035766246,1724764915591595100,1724764915591595100,-1.0,0.0,1.0,8.541236411474529e-07,-9.95687742033624e-07,-0.0003668630961328745,51.571937561035156,330.8496398925781,0.30529171228408813,1.6381540035581565e-06,-0.13522407412528992,-0.1598205417394638,1724764915.5915952
1724764915.6850317,2.95,-0.05599670410156232,1724764915688533700,1724764915687026100,0.0,-0.0235294122248888,0.0039215688593685,1.0798951279866742e-06,-1.2333279073573067e-06,-0.00045318782213144004,51.571937561035156,330.8496398925781,0.3052572011947632,1.6381540035581565e-06,-0.13522407412528992,-0.1598205417394638,1724764915.6870263
1724764915.6850317,3.0,-0.0059967041015625,1724764915688533700,1724764915687026100,0.0,-0.0235294122248888,0.0039215688593685,1.0798951279866742e-06,-1.2333279073573067e-06,-0.00045318782213144004,51.571937561035156,330.8496398925781,0.3052572011947632,1.6381540035581565e-06,-0.13522407412528992,-0.1598205417394638,1724764915.6870263
1724764915.735577,3.0500000000000003,-0.006542158126830788,1724764915741663500,1724764915739667900,0.0,-0.0235294122248888,0.0078431377187371,0.05953967198729515,-9.706350829219446e-05,0.0007482023793272674,51.572757720947266,330.8496398925781,0.3052993416786194,3.603502773330547e-05,-0.13653548061847687,-0.1597900241613388,1724764915.7396681
1724764915.7871315,3.1,-0.008096599578857333,1724764915784138100,1724764915782143300,0.0,-0.0235294122248888,0.0352941192686557,0.03781382739543915,-2.733872133831028e-05,0.00032607660978101194,51.57390594482422,330.8496398925781,0.3053194582462311,4.677157266996801e-05,-0.13784687221050262,-0.1597900241613388,1724764915.7821434
1724764915.8370845,3.1500000000000004,-0.008049583435058238,1724764915837084400,1724764915835089500,0.0,-0.0235294122248888,0.0666666701436042,0.03686370328068733,-2.4259092242573388e-05,0.0005412707105278969,51.57626724243164,330.8496398925781,0.3053499460220337,4.467475810088217e-05,-0.13934268057346344,-0.1597900241613388,1724764915.8350894
1724764915.888564,3.2,-0.009529161453246893,1724764915890042800,1724764915887057700,0.0,-0.0235294122248888,0.0980392172932624,0.03396695479750633,-1.532570422568824e-05,-4.9392576329410076e-05,51.57862091064453,330.8496398925781,0.30534860491752625,4.524924861470936e-06,-0.13955441117286682,-0.1597900390625,1724764915.8870578
1724764915.9386053,3.25,-0.00957036018371582,1724764915942105400,1724764915941109000,0.0,-0.0235294122248888,0.1607843190431594,0.054457925260066986,-0.00010235997615382075,0.00011215919948881492,51.58205795288086,330.84967041015625,0.3053548038005829,-6.103516352595761e-05,-0.1389123797416687,-0.1597900390625,1724764915.9411092
1724764915.9875166,3.3000000000000003,-0.008481693267822,1724764915984524900,1724764915984524900,0.0,-0.0235294122248888,0.2352941185235977,0.033639226108789444,-1.4295931578089949e-05,-0.00011538025864865631,51.5831184387207,330.84967041015625,0.3053428828716278,-9.155276347883046e-05,-0.13833864033222198,-0.1597595065832138,1724764915.984525
1724764916.0396683,3.35,-0.010633373260497958,1724764916037614200,1724764916038612400,0.0,-0.0235294122248888,0.3450980484485626,0.05973774939775467,-0.000112777495814953,-0.00014987221220508218,51.58671569824219,330.84967041015625,0.30533522367477417,-0.00015258790517691523,-0.13763514161109924,-0.1597900241613388,1724764916.0386126
1724764916.0895946,3.4000000000000004,-0.010559654235839488,1724764916089594600,1724764916091591600,0.0,-0.0235294122248888,0.4156862795352936,0.2809714674949646,-0.0018873496446758509,0.0005045821890234947,51.59443664550781,330.8493957519531,0.30541667342185974,0.023394078016281128,-0.14480683207511902,-0.1598510891199112,1724764916.0915918
1724764916.142037,3.45,-0.013001966476440252,1724764916143033800,1724764916145028500,0.0,-0.0235294122248888,0.4470588266849518,0.411965936422348,-0.0013398791197687387,0.0009989490499719977,51.61395263671875,330.84918212890625,0.30558013916015625,0.04100935533642769,-0.1615612804889679,-0.1599426120519638,1724764916.1450288
1724764916.1920378,3.5,-0.013002872467041016,1724764916185100600,1724764916188601400,0.0,-0.0235294122248888,0.4705882370471954,0.5108230710029602,-0.0004064760578330606,0.0018217938486486673,51.62581253051758,330.84918212890625,0.3056707978248596,0.0425378642976284,-0.1694364994764328,-0.1597900241613388,1724764916.1886015
1724764916.242527,3.5500000000000003,-0.013492059707641335,1724764916238508800,1724764916240532400,0.0,-0.0235294122248888,0.4901960790157318,0.6125343441963196,-0.0011271726107224822,0.0017666103085502982,51.6561164855957,330.8493347167969,0.3058018982410431,0.029525766149163246,-0.18295343220233917,-0.1597900241613388,1724764916.2405326
1724764916.2947252,3.6,-0.0156902313232421,1724764916290737200,1724764916293728800,0.0,-0.0235294122248888,0.5058823823928833,0.7674464583396912,-0.0011414907639846206,0.002528292592614889,51.71242141723633,330.8492431640625,0.30594587326049805,0.034801844507455826,-0.1963474303483963,-0.1596069037914276,1724764916.2937288
1724764916.341599,3.6500000000000004,-0.012564039230346324,1724764916343593800,1724764916346585300,0.0,-0.0235294122248888,0.5215686559677124,1.0532654523849487,-0.0013757421402260661,0.00395248644053936,51.75783157348633,330.8492431640625,0.30606064200401306,0.03409111872315407,-0.2056911289691925,-0.1595458835363388,1724764916.3465855
1724764916.3935797,3.7,-0.014544773101806463,1724764916396570800,1724764916389593800,0.0,-0.0235294122248888,0.529411792755127,1.132293701171875,-0.0013034772127866745,0.0038336587604135275,51.81452941894531,330.84930419921875,0.3061063885688782,0.032790470868349075,-0.21140117943286896,-0.1594848483800888,1724764916.389594
1724764916.443977,3.75,-0.014942169189453125,1724764916450491100,1724764916442980400,0.0,-0.0235294122248888,0.5333333611488342,1.3551945686340332,-0.0015643949154764414,0.005021670367568731,51.87820816040039,330.84930419921875,0.30617454648017883,0.03302283585071564,-0.21762347221374512,-0.159454345703125,1724764916.4429805
1724764916.4935606,3.8000000000000003,-0.014525604248046609,1724764916501909800,1724764916494559100,0.0,-0.0235294122248888,0.5372549295425415,1.5278807878494263,-0.0018031202489510179,0.006328764371573925,51.94965362548828,330.8492431640625,0.3062209486961365,0.03437541797757149,-0.22159181535243988,-0.1594238132238388,1724764916.494559
1724764916.544069,3.85,-0.015034103393554599,1724764916544069200,1724764916536528400,0.0,-0.0235294122248888,0.5372549295425415,1.6790449619293213,-0.0019817373249679804,0.006442295387387276,52.032249450683594,330.84930419921875,0.3062577247619629,0.03305141627788544,-0.22558064758777618,-0.1594543159008026,1724764916.5365286
1724764916.5946498,3.9000000000000004,-0.015614843368529918,1724764916596645200,1724764916589664000,0.0,-0.0235294122248888,0.5411764979362488,1.8652220964431763,-0.002194109605625272,0.007599973119795322,52.12207794189453,330.84930419921875,0.3062750995159149,0.033155906945466995,-0.22717207670211792,-0.1594543159008026,1724764916.5896642
1724764916.6455972,3.95,-0.016562271118163885,1724764916648588800,1724764916642603900,0.0,-0.0235294122248888,0.5411764979362488,1.956799030303955,-0.002348082372918725,0.0078978780657053,52.16989517211914,330.8492431640625,0.3062908947467804,0.03395114094018936,-0.22845615446567535,-0.1594238132238388,1724764916.6426039
1724764916.6952143,4.0,-0.016179323196411133,1724764916702112400,1724764916696211200,0.0,-0.0235294122248888,0.545098066329956,2.2044591903686523,-0.002595621859654784,0.008831889368593693,52.326683044433594,330.8493347167969,0.3063095510005951,0.029793260619044304,-0.2300407588481903,-0.1594848483800888,1724764916.6962113
1724764916.7440872,4.05,-0.015052270889282404,1724764916755114000,1724764916749601700,0.0,-0.0235294122248888,0.5490196347236633,2.3568270206451416,-0.0027794959023594856,0.009770910255610943,52.4402961730957,330.8493347167969,0.30630743503570557,0.02795848436653614,-0.22952166199684143,-0.15948486328125,1724764916.7496018
1724764916.7970173,4.1000000000000005,-0.017982387542724076,1724764916797017300,1724764916792031700,0.0,-0.0235294122248888,0.5490196347236633,2.437755823135376,-0.0028727774042636156,0.009351639077067375,52.504295349121094,330.8493347167969,0.3062882423400879,0.026774639263749123,-0.22879765927791595,-0.1595153957605362,1724764916.7920318
1724764916.84715,4.15,-0.018115139007568004,1724764916850690300,1724764916846152400,0.0,-0.0235294122248888,0.5529412031173706,2.6675941944122314,-0.0031121515203267336,0.010964623652398586,52.70130920410156,330.849365234375,0.3062545955181122,0.022690488025546074,-0.22561480104923248,-0.1595458686351776,1724764916.8461525
1724764916.8995895,4.2,-0.02055459022521955,1724764916903581800,1724764916898579500,0.0,-0.0235294122248888,0.5529412031173706,2.821774482727051,-0.0032745322678238153,0.010890358127653599,52.843772888183594,330.8493347167969,0.30622538924217224,0.01971016451716423,-0.22327204048633575,-0.159576416015625,1724764916.8985796
1724764916.9490194,4.25,-0.01998448371887207,1724764916957506500,1724764916952013300,0.0,-0.0235294122248888,0.5568627715110779,2.9684653282165527,-0.0034255010541528463,0.011367523111402988,52.98702621459961,330.8492431640625,0.30621302127838135,0.01668914034962654,-0.22121615707874298,-0.1596069186925888,1724764916.9520135
1724764916.9975266,4.3,-0.018491697311401545,1724764917001133700,1724764916995531600,0.0,-0.0235294122248888,0.5568627715110779,3.0460832118988037,-0.003504684194922447,0.011550601571798325,53.06568908691406,330.84912109375,0.30619823932647705,0.015024407766759396,-0.22028042376041412,-0.1596374362707138,1724764916.9955316
1724764917.0506482,4.3500000000000005,-0.021613264083861772,1724764917055168200,1724764917049649900,0.0,-0.0235294122248888,0.5607843399047852,3.2687668800354004,-0.0037271082401275635,0.012484487146139145,53.303279876708984,330.8488464355469,0.30618026852607727,0.0099729523062706,-0.21820403635501862,-0.15966796875,1724764917.04965
1724764917.099669,4.4,-0.020634031295776012,1724764917110535700,1724764917103655200,0.0,-0.0235294122248888,0.5607843399047852,3.4197640419006348,-0.0038744148332625628,0.013255767524242401,53.47416305541992,330.8486633300781,0.3061697781085968,0.006322156637907028,-0.2172205001115799,-0.159698486328125,1724764917.1036553
1724764917.152,4.45,-0.022965002059936346,1724764917163603600,1724764917157313600,0.0,-0.0235294122248888,0.5607843399047852,3.573369026184082,-0.004023542627692223,0.013347109779715538,53.65622329711914,330.8484802246094,0.30615589022636414,0.002422867575660348,-0.21658529341220856,-0.15972900390625,1724764917.1573136
1724764917.1851285,4.5,-0.006093502044677734,1724764917196061000,1724764917188695100,0.0,0.0235294122248888,0.5647059082984924,3.6433212757110596,-0.004088381305336952,0.014210715889930725,53.74199676513672,330.8483581542969,0.3061651885509491,0.000581457104999572,-0.21637354791164398,-0.15972900390625,1724764917.1886952
1724764917.2563584,4.55,-0.027323436737060725,1724764917249865600,1724764917253366500,0.0,0.0235294122248888,0.5647059082984924,3.8725404739379883,0.0031794921960681677,0.015374683775007725,54.03543472290039,330.8484191894531,0.306149959564209,0.004655210766941309,-0.21594324707984924,-0.1578674167394638,1724764917.2533667
1724764917.2810433,4.6000000000000005,-0.002008342742919389,1724764917292831800,1724764917285032100,0.0,0.0235294122248888,0.5647059082984924,3.949570894241333,0.00371788302436471,0.014776140451431274,54.13813018798828,330.8485107421875,0.3061463236808777,0.008213917724788189,-0.21588177978992462,-0.1574706882238388,1724764917.2850323
1724764917.333568,4.65,-0.004533147811889293,1724764917344611000,1724764917336559000,0.0,0.0235294122248888,0.5647059082984924,4.106805801391602,0.004142366349697113,0.015457660891115665,54.354637145996094,330.8486633300781,0.3061356842517853,0.016961893066763878,-0.21575883030891418,-0.1572265475988388,1724764917.3365593
1724764917.3840878,4.7,-0.005052852630615057,1724764917387079400,1724764917380095700,0.0,0.0235294122248888,0.5647059082984924,4.177600860595703,0.004221170209348202,0.01621844619512558,54.45516586303711,330.8487548828125,0.3061486482620239,0.021313562989234924,-0.21572467684745789,-0.1572265475988388,1724764917.380096
1724764917.4351065,4.75,-0.006071567535400391,1724764917440101700,1724764917433111600,0.0,0.0235294122248888,0.5647059082984924,4.328054904937744,0.004322031978517771,0.01623881235718727,54.67531967163086,330.8488464355469,0.3061481714248657,0.0311261136084795,-0.21567003428936005,-0.15740962326526642,1724764917.4331117
1724764917.487062,4.800000000000001,-0.008027029037474875,1724764917492584000,1724764917486064800,0.0,0.0235294122248888,0.5647059082984924,4.552063465118408,0.004448336083441973,0.017200898379087448,55.01951217651367,330.849365234375,0.3061475157737732,0.04675343632698059,-0.21548563241958618,-0.1576843112707138,1724764917.486065
1724764917.5373719,4.8500000000000005,-0.008336925506591264,1724764917545463200,1724764917539473700,0.0,0.0705882385373115,0.5647059082984924,4.697840213775635,0.011370019055902958,0.017418421804904938,55.25423049926758,330.8498840332031,0.3061486482620239,0.06303683668375015,-0.21530121564865112,-0.156463623046875,1724764917.5394738
1724764917.5905848,4.9,-0.011549806594848278,1724764917597565700,1724764917592579100,0.0,0.0235294122248888,0.5647059082984924,4.8488287925720215,0.006685205269604921,0.018139399588108063,55.50627899169922,330.8504333496094,0.3061385750770569,0.08039607107639313,-0.21508264541625977,-0.1567382514476776,1724764917.5925791
1724764917.6407542,4.95,-0.011719274520873846,1724764917650235200,1724764917644743700,0.0,0.0235294122248888,0.5607843399047852,4.990575313568115,0.005281292833387852,0.01880483329296112,55.751243591308594,330.8509826660156,0.3061476945877075,0.09417853504419327,-0.21481627225875854,-0.1575011909008026,1724764917.6447437
1724764917.690686,5.0,-0.011651039123535156,1724764917691683000,1724764917686648000,0.0,-0.0235294122248888,0.5607843399047852,5.064868450164795,0.005002529826015234,0.022280041128396988,55.882991790771484,330.85125732421875,0.3062058985233307,0.10094549506902695,-0.2146591693162918,-0.1578368991613388,1724764917.6866481
1724764917.7426932,5.050000000000001,-0.01365823745727468,1724764917745685200,1724764917739698500,0.0,-0.0235294122248888,0.5607843399047852,5.205587863922119,-0.0024409291800111532,0.020989900454878807,56.13964080810547,330.8517150878906,0.30631113052368164,0.1076740175485611,-0.2143176645040512,-0.1596679836511612,1724764917.7396986
1724764917.7935781,5.1000000000000005,-0.014543199539184037,1724764917797567300,1724764917791583500,0.0,-0.0235294122248888,0.5607843399047852,5.3465895652771,-0.004915557336062193,0.020391784608364105,56.411434173583984,330.8519592285156,0.3063482344150543,0.10808226466178894,-0.2138054072856903,-0.161102294921875,1724764917.7915835
1724764917.8475015,5.15,-0.018466567993163707,1724764917851995900,1724764917845506300,0.0,-0.0235294122248888,0.5607843399047852,5.398931980133057,-0.005487634334713221,0.018975019454956055,56.84044647216797,330.8523864746094,0.30624470114707947,0.10170327126979828,-0.20424996316432953,-0.1614379584789276,1724764917.8455064
1724764917.8972268,5.2,-0.018191862106323065,1724764917903777900,1724764917898786500,0.0,-0.0235294122248888,0.5607843399047852,5.507873058319092,-0.005567527376115322,0.01849714107811451,57.116546630859375,330.8526916503906,0.30614426732063293,0.09607147425413132,-0.19643622636795044,-0.1612243354320526,1724764917.8987868
1724764917.9510946,5.25,-0.02205967903137207,1724764917956588000,1724764917952091000,0.0,-0.0235294122248888,0.5764706134796143,5.621744632720947,-0.005607123486697674,0.01846008002758026,57.41618347167969,330.85296630859375,0.30607616901397705,0.08970124274492264,-0.19198977947235107,-0.16098017990589142,1724764917.952091
1724764918.0037348,5.300000000000001,-0.024699878692626243,1724764918010224200,1724764918005728600,0.0,-0.0235294122248888,0.5882353186607361,5.778306007385254,-0.005724992137402296,0.019059354439377785,57.71846389770508,330.853271484375,0.30605804920196533,0.08337551355361938,-0.1920512467622757,-0.1607971042394638,1724764918.0057287
1724764918.055132,5.3500000000000005,-0.026096963882445756,1724764918062042000,1724764918058633200,0.0,-0.0705882385373115,0.5960784554481506,5.992976188659668,-0.010766284540295601,0.02044708840548992,58.01594543457031,330.8533630371094,0.30610179901123047,0.07559201121330261,-0.1975700408220291,-0.1613464206457138,1724764918.0586333
1724764918.0815766,5.4,-0.0025416374206539416,1724764918083571800,1724764918080580400,0.0,-0.0705882385373115,0.6000000238418579,6.110848426818848,-0.013940468430519104,0.02146037109196186,58.18025207519531,330.853271484375,0.30615031719207764,0.06810857355594635,-0.202788308262825,-0.1623535007238388,1724764918.0805805
1724764918.1352704,5.45,-0.006235408782958807,1724764918137264600,1724764918134272300,0.0,-0.0705882385373115,0.6039215922355652,6.275942802429199,-0.016783248633146286,0.023078173398971558,58.50941848754883,330.85296630859375,0.3062327802181244,0.0482805073261261,-0.2115241140127182,-0.1637268215417862,1724764918.1342723
1724764918.1897008,5.5,-0.0106658935546875,1724764918190696800,1724764918188557700,0.0,-0.0705882385373115,0.6078431606292725,6.41425895690918,-0.0176911149173975,0.02413420006632805,58.85371398925781,330.8525390625,0.3062728941440582,0.02331981621682644,-0.21588177978992462,-0.1641845703125,1724764918.1885579
1724764918.241603,5.550000000000001,-0.012567949295043235,1724764918243597400,1724764918242600400,0.0,-0.0705882385373115,0.6117647290229797,6.578148365020752,-0.018047180026769638,0.02501392550766468,59.19645309448242,330.8518981933594,0.3062901496887207,-0.0036315915640443563,-0.21782837808132172,-0.1641845554113388,1724764918.2426004
1724764918.2935767,5.6000000000000005,-0.014541769027709428,1724764918296566700,1724764918295569800,0.0,-0.0705882385373115,0.6117647290229797,6.766229629516602,-0.018354790285229683,0.026121897622942924,59.541053771972656,330.8511657714844,0.30632084608078003,-0.031463623046875,-0.22094978392124176,-0.164093017578125,1724764918.2955701
1724764918.353092,5.65,-0.024057006835937145,1724764918359612800,1724764918349591400,0.0,-0.0705882385373115,0.615686297416687,6.982895374298096,-0.018643775954842567,0.02753506973385811,59.95930099487305,330.85003662109375,0.30636826157569885,-0.0657653883099556,-0.22555331885814667,-0.1640319675207138,1724764918.3495915
1724764918.3797483,5.7,-0.0007133960723875177,1724764918391548700,1724764918380748200,0.0,-0.0705882385373115,0.615686297416687,7.070016860961914,-0.018754012882709503,0.0280621200799942,60.14406204223633,330.8494873046875,0.3063834011554718,-0.0810546875,-0.22698765993118286,-0.1640319675207138,1724764918.3807485
1724764918.4325433,5.75,-0.003508329391479492,1724764918443966100,1724764918434537500,0.0,-0.0705882385373115,0.6196078658103943,7.1522321701049805,-0.018815524876117706,0.028504813089966774,60.33170700073242,330.84881591796875,0.3063930571079254,-0.09674072265625,-0.22790974378585815,-0.1640625,1724764918.4345376
1724764918.4846094,5.800000000000001,-0.005574417114257102,1724764918496206900,1724764918487600400,0.0,-0.0705882385373115,0.6235294342041016,7.376022815704346,-0.018970023840665817,0.029402120038866997,60.8697509765625,330.84674072265625,0.306393563747406,-0.1421813815832138,-0.22793705761432648,-0.1641845554113388,1724764918.4876006
1724764918.538584,5.8500000000000005,-0.009549045562743608,1724764918548681000,1724764918541049200,0.0,-0.0705882385373115,0.6235294342041016,7.541574478149414,-0.019065266475081444,0.0298494603484869,61.28624725341797,330.8448791503906,0.3063768446445465,-0.1776733100414276,-0.22631829977035522,-0.1643676459789276,1724764918.5410492
1724764918.5887346,5.9,-0.009699678421020153,1724764918589802100,1724764918583747900,0.0,-0.0705882385373115,0.6235294342041016,7.686689376831055,-0.019150566309690475,0.030174484476447105,61.66145324707031,330.8429870605469,0.30635756254196167,-0.2097473293542862,-0.22446049749851227,-0.16455078125,1724764918.5837479
1724764918.6427245,5.95,-0.013689565658569158,1724764918653208400,1724764918646714900,0.0,-0.0705882385373115,0.6274510025978088,7.8431477546691895,-0.019223030656576157,0.030502257868647575,62.0762825012207,330.8406677246094,0.306335985660553,-0.2453307807445526,-0.22238411009311676,-0.1647643893957138,1724764918.646715
1724764918.6935399,6.0,-0.01450490951538086,1724764918695533600,1724764918689547500,0.0,-0.0705882385373115,0.6313725709915161,7.9937663078308105,-0.019291993230581284,0.030839329585433006,62.48458480834961,330.8381652832031,0.306317538022995,-0.28033447265625,-0.22060826420783997,-0.16497802734375,1724764918.6895475
1724764918.7460585,6.050000000000001,-0.017023515701293235,1724764918748564100,1724764918742068700,0.0,-0.0705882385373115,0.6274510025978088,8.140270233154297,-0.01934518851339817,0.031198084354400635,62.8899040222168,330.8353576660156,0.30630290508270264,-0.31512451171875,-0.21917392313480377,-0.1651916652917862,1724764918.7420688
1724764918.8006709,6.1000000000000005,-0.02163591384887642,1724764918810710100,1724764918805657700,0.0,-0.0705882385373115,0.6235294342041016,8.304289817810059,-0.019388459622859955,0.03165265545248985,63.355159759521484,330.8319396972656,0.3062903583049774,-0.35504150390625,-0.21798548102378845,-0.1654662787914276,1724764918.8056576
1724764918.8531575,6.15,-0.024122571945190074,1724764918864027800,1724764918857476400,0.0,-0.0705882385373115,0.6235294342041016,8.452896118164062,-0.019415562972426414,0.03209112957119942,63.78879928588867,330.8284606933594,0.3062816262245178,-0.3922423720359802,-0.21712486445903778,-0.1656799167394638,1724764918.8574765
1724764918.8805919,6.2,-0.0015569210052488458,1724764918884581700,1724764918879595700,0.0,-0.0705882385373115,0.615686297416687,8.529428482055664,-0.019420824944972992,0.03232640027999878,64.01631164550781,330.8265686035156,0.3062777519226074,-0.41177359223365784,-0.21676969528198242,-0.1658019870519638,1724764918.879596
1724764918.9300468,6.25,-0.0010118484497070312,1724764918937030500,1724764918932043600,0.0,-0.0235294122248888,0.615686297416687,8.672347068786621,-0.014232192188501358,0.03276017680764198,64.45020294189453,330.8227233886719,0.30627140402793884,-0.44671630859375,-0.21615497767925262,-0.165252685546875,1724764918.9320436
1724764918.9830177,6.300000000000001,-0.003982734680175071,1724764918989567100,1724764918985013300,0.0,-0.0235294122248888,0.615686297416687,8.82046127319336,-0.008761435747146606,0.03320901468396187,64.912841796875,330.8186950683594,0.30626508593559265,-0.4743652641773224,-0.2155470997095108,-0.1632384955883026,1724764918.9850132
1724764919.0355265,6.3500000000000005,-0.00649156570434517,1724764919042722400,1724764919039731100,0.0,0.0235294122248888,0.615686297416687,8.96630573272705,-0.0066758086904883385,0.03366192430257797,65.37989807128906,330.814453125,0.3062589764595032,-0.4956054389476776,-0.2149733603000641,-0.1620178073644638,1724764919.0397313
1724764919.0855265,6.4,-0.0064915180206295275,1724764919084528400,1724764919081536900,0.0,0.0235294122248888,0.615686297416687,9.106417655944824,0.0022085332311689854,0.034073036164045334,65.83877563476562,330.81048583984375,0.30625322461128235,-0.5058899521827698,-0.21441328525543213,-0.1597900539636612,1724764919.0815372
1724764919.1556058,6.45,-0.026570844650268377,1724764919159701500,1724764919156602800,0.0,0.0235294122248888,0.615686297416687,9.31743049621582,0.006571277044713497,0.03472727909684181,66.54804229736328,330.8045959472656,0.3062453866004944,-0.5025025606155396,-0.21364830434322357,-0.1572265475988388,1724764919.156603
1724764919.201789,6.5,-0.02275395393371582,1724764919200789200,1724764919197046900,0.0,0.0235294122248888,0.615686297416687,9.393322944641113,0.006919787731021643,0.03496512025594711,66.80847930908203,330.8024597167969,0.30624276399612427,-0.4976195991039276,-0.21338193118572235,-0.1568298041820526,1724764919.197047
1724764919.2301376,6.550000000000001,-0.0011026382446281957,1724764919232134300,1724764919228513100,0.0,0.0235294122248888,0.615686297416687,9.471068382263184,0.006975729018449783,0.0352138914167881,67.07814025878906,330.80023193359375,0.3062402307987213,-0.4912719428539276,-0.21313604712486267,-0.1566162109375,1724764919.2285132
1724764919.3025877,6.6000000000000005,-0.023552799224852983,1724764919305579700,1724764919301590500,0.0,0.0705882385373115,0.615686297416687,9.678606033325195,0.0064185606315732,0.03588883578777313,67.81261444091797,330.79437255859375,0.3062340021133423,-0.46920767426490784,-0.21255546808242798,-0.1564330756664276,1724764919.3015907
1724764919.3291066,6.65,-7.16209411617541e-05,1724764919337516400,1724764919333526100,0.0,0.0705882385373115,0.615686297416687,9.747660636901855,0.011148479767143726,0.03610100597143173,68.06184387207031,330.79248046875,0.3062320649623871,-0.45858773589134216,-0.2123710662126541,-0.15570068359375,1724764919.3335261
1724764919.3870459,6.7,-0.008010911941528143,1724764919390585900,1724764919386048600,0.0,0.0705882385373115,0.615686297416687,9.885602951049805,0.016240771859884262,0.036536041647195816,68.56676483154297,330.78900146484375,0.3062284588813782,-0.4285583198070526,-0.212002232670784,-0.1533203125,1724764919.3860486
1724764919.4508376,6.75,-0.021802663803100586,1724764919453340300,1724764919449840300,0.0,0.0705882385373115,0.615686297416687,10.093351364135742,0.01820550486445427,0.037217117846012115,69.34521484375,330.7843933105469,0.30622348189353943,-0.36791983246803284,-0.2115241140127182,-0.1508788913488388,1724764919.4498405
1724764919.5175412,6.800000000000001,-0.038506221771239524,1724764919517541200,1724764919513550400,0.0,0.0705882385373115,0.615686297416687,10.230134963989258,0.01794201321899891,0.03766506910324097,69.8697509765625,330.78173828125,0.3062203526496887,-0.3211669623851776,-0.21120992302894592,-0.150115966796875,1724764919.5135505
1724764919.5515814,6.8500000000000005,-0.022546434402465287,1724764919560722700,1724764919556081100,0.0,0.0705882385373115,0.615686297416687,10.362890243530273,0.017280200496315956,0.038106225430965424,70.3880386352539,330.7794494628906,0.30621740221977234,-0.2721862494945526,-0.21092988550662994,-0.14959716796875,1724764919.5560813
1724764919.5893223,6.9,-0.010287380218505504,1724764919592559500,1724764919588300300,0.0,0.0705882385373115,0.6117647290229797,10.430098533630371,0.01689170114696026,0.03832336142659187,70.6539077758789,330.7784423828125,0.30621588230133057,-0.2463379055261612,-0.21075230836868286,-0.1493835598230362,1724764919.5883005
1724764919.6365416,6.95,-0.007506656646728338,1724764919645076700,1724764919641087200,0.0,0.0705882385373115,0.6117647290229797,10.556214332580566,0.01613985374569893,0.038736797869205475,71.16145324707031,330.77679443359375,0.306212842464447,-0.1959838718175888,-0.21047909557819366,-0.148956298828125,1724764919.6410873
1724764919.68272,7.0,-0.00368499755859375,1724764919687706600,1724764919683717800,0.0,0.0235294122248888,0.6117647290229797,10.688248634338379,0.015376693569123745,0.03916168212890625,71.7034683227539,330.7755126953125,0.30620914697647095,-0.141204833984375,-0.21014441549777985,-0.1484985053539276,1724764919.683718
1724764919.7609282,7.050000000000001,-0.031893205642699485,1724764919761926700,1724764919756615300,0.0,0.0235294122248888,0.6117647290229797,10.881536483764648,0.003799720201641321,0.039791084825992584,72.51412963867188,330.7740478515625,0.3062031865119934,-0.0712585300207138,-0.20956385135650635,-0.150726318359375,1724764919.7566156
1724764919.8068476,7.1000000000000005,-0.0278126239776606,1724764919815518100,1724764919810531700,0.0,0.0235294122248888,0.6117647290229797,11.013581275939941,0.0008087625610642135,0.04020623490214348,73.07986450195312,330.7732849121094,0.3061990737915039,-0.0319213792681694,-0.2091677039861679,-0.152008056640625,1724764919.8105316
1724764919.843637,7.15,-0.01460204124450648,1724764919846627600,1724764919841641500,0.0,0.0235294122248888,0.6078431606292725,11.082393646240234,5.996102845529094e-05,0.040416404604911804,73.37853240966797,330.77294921875,0.3061969578266144,-0.01324462704360485,-0.20894913375377655,-0.15234375,1724764919.8416417
1724764919.897037,7.2,-0.01800208091735822,1724764919899561800,1724764919895041900,0.0,0.0235294122248888,0.6039215922355652,11.21113109588623,-0.0005260332836769521,0.04081612452864647,73.94487762451172,330.77264404296875,0.30619317293167114,0.019371556118130684,-0.2085871398448944,-0.1525268703699112,1724764919.895042
1724764919.9730299,7.25,-0.043994903564453125,1724764919973029800,1724764919970035700,0.0,0.0235294122248888,0.6000000238418579,11.40575122833252,-0.00045552325900644064,0.04141049459576607,74.82537841796875,330.7728576660156,0.3061869442462921,0.06498760730028152,-0.2080134004354477,-0.1523132175207138,1724764919.9700358
1724764919.998601,7.300000000000001,-0.019566011428832297,1724764920004805100,1724764920001812400,0.0,0.0235294122248888,0.6000000238418579,11.470093727111816,-0.00033700757194310427,0.04159398376941681,75.12356567382812,330.7730407714844,0.3061845302581787,0.07946862280368805,-0.20776067674160004,-0.1522216647863388,1724764920.0018127
1724764920.0345619,7.3500000000000005,-0.005526924133300248,1724764920036557300,1724764920033564500,0.0,0.0235294122248888,0.6000000238418579,11.601509094238281,-7.119355723261833e-05,0.041958220303058624,75.74246978759766,330.7737731933594,0.3061789870262146,0.10844364017248154,-0.20721426606178284,-0.152069091796875,1724764920.0335646
1724764920.0886292,7.4,-0.009594297409057262,1724764920090091600,1724764920086126000,0.0,0.0235294122248888,0.6000000238418579,11.664860725402832,4.812549377675168e-05,0.04213876277208328,76.04524993896484,330.7742614746094,0.30617615580558777,0.12220292538404465,-0.20696838200092316,-0.1520385891199112,1724764920.086126
1724764920.142691,7.45,-0.013655948638915838,1724764920143687400,1724764920140695100,0.0,0.0235294122248888,0.6000000238418579,11.86232852935791,0.00032749513047747314,0.042666565626859665,77.00645446777344,330.7762451171875,0.30616697669029236,0.1646013706922531,-0.20608045160770416,-0.1520080864429474,1724764920.140695
1724764920.1955602,7.5,-0.0165252685546875,1724764920196557200,1724764920193565200,0.0,0.0235294122248888,0.6000000238418579,11.988519668579102,0.00041976914508268237,0.0430058017373085,77.63396453857422,330.7779541015625,0.30616140365600586,0.1915373057126999,-0.20553404092788696,-0.15203857421875,1724764920.1935654
1724764920.2485328,7.550000000000001,-0.01949782371520925,1724764920249999200,1724764920246538600,0.0,0.0235294122248888,0.6000000238418579,12.116002082824707,0.00044783102930523455,0.043358415365219116,78.27819061279297,330.780029296875,0.3061562478542328,0.21877709031105042,-0.2050422728061676,-0.1520995944738388,1724764920.2465386
1724764920.30155,7.6000000000000005,-0.02251496315002388,1724764920303544500,1724764920301549700,0.0,0.0235294122248888,0.6000000238418579,12.243280410766602,0.000418837764300406,0.04371706768870354,78.93168640136719,330.7824401855469,0.3061515986919403,0.2460956573486328,-0.20459146797657013,-0.1521300971508026,1724764920.30155
1724764920.3521028,7.65,-0.023067808151244762,1724764920356518600,1724764920355521500,0.0,0.0235294122248888,0.5960784554481506,12.360434532165527,0.0003493441909085959,0.04405650869011879,79.54230499267578,330.7850036621094,0.3061477541923523,0.2714118957519531,-0.2042226493358612,-0.15216064453125,1724764920.3555217
1724764920.404275,7.7,-0.025239992141723455,1724764920408772700,1724764920408772700,0.0,0.0235294122248888,0.5960784554481506,12.484108924865723,0.00023838630295358598,0.04441847279667854,80.19764709472656,330.78802490234375,0.30614402890205383,0.29840391874313354,-0.20386064052581787,-0.1521911323070526,1724764920.4087727
1724764920.4295533,7.75,-0.0005183219909667969,1724764920430552100,1724764920430552100,0.0,0.0235294122248888,0.5960784554481506,12.54123592376709,0.00017672652029432356,0.04459017887711525,80.50447082519531,330.7895202636719,0.30614233016967773,0.31098872423171997,-0.2037103772163391,-0.1521911323070526,1724764920.4305522
1724764920.4811463,7.800000000000001,-0.0021113872528069066,1724764920484139100,1724764920485135800,0.0,0.0235294122248888,0.5960784554481506,12.662920951843262,2.5133886083494872e-05,0.0449390634894371,81.16622161865234,330.79302978515625,0.3061386048793793,0.3380327820777893,-0.2033347189426422,-0.15216064453125,1724764920.485136
1724764920.5328062,7.8500000000000005,-0.003771209716796342,1724764920526767800,1724764920527764200,0.0,0.0235294122248888,0.5921568870544434,12.722160339355469,-5.6908738770289347e-05,0.04511673375964165,81.4922866821289,330.79486083984375,0.30613672733306885,0.35131463408470154,-0.20318445563316345,-0.152130126953125,1724764920.5277643
1724764920.587043,7.9,-0.008008098602294567,1724764920590570000,1724764920591567400,0.0,0.0235294122248888,0.5921568870544434,12.90531063079834,-0.0003404826857149601,0.04563701152801514,82.5189208984375,330.8011779785156,0.3061307966709137,0.39297136664390564,-0.20260389149188995,-0.1520690768957138,1724764920.5915675
1724764920.6371324,7.95,-0.00809745788574201,1724764920633141500,1724764920634139900,0.0,-0.0235294122248888,0.5921568870544434,12.960009574890137,-0.0004315717378631234,0.04578151926398277,82.83102416992188,330.80322265625,0.30612891912460327,0.4055907428264618,-0.20239216089248657,-0.15203857421875,1724764920.63414
1724764920.7284894,8.0,-0.049454450607299805,1724764920729503700,1724764920730498500,0.0,-0.0235294122248888,0.5921568870544434,13.224236488342285,-0.013441868126392365,0.046532176434993744,84.37503814697266,330.8133544921875,0.30611875653266907,0.43808600306510925,-0.20144276320934296,-0.1567077487707138,1724764920.7304986
1724764920.7535384,8.05,-0.024503421783446555,1724764920750545800,1724764920751543100,0.0,-0.0235294122248888,0.5921568870544434,13.278092384338379,-0.013977806083858013,0.046674005687236786,84.69710540771484,330.8154602050781,0.3061165511608124,0.4398287236690521,-0.20123101770877838,-0.1573486030101776,1724764920.751543
1724764920.779397,8.1,-0.0003620624542239881,1724764920781573500,1724764920782569900,0.0,-0.0235294122248888,0.5960784554481506,13.335071563720703,-0.014157403260469437,0.04682616889476776,85.0397720336914,330.8176574707031,0.3061143159866333,0.44035419821739197,-0.201019287109375,-0.1578979343175888,1724764920.7825701
1724764920.8311467,8.15,-0.0021117687225338244,1724764920835134500,1724764920836132000,0.0,-0.0235294122248888,0.5843137502670288,13.450812339782715,-0.013740035705268383,0.04712921753525734,85.74178314208984,330.8223876953125,0.3061099052429199,0.4380057454109192,-0.20058898627758026,-0.1586303412914276,1724764920.8361323
1724764920.8842757,8.200000000000001,-0.0052407264709462,1724764920888775100,1724764920888775100,0.0,-0.0235294122248888,0.5607843399047852,13.565702438354492,-0.012767069973051548,0.04742911458015442,86.45428466796875,330.8271484375,0.3061056435108185,0.4320264756679535,-0.2001655101776123,-0.159088134765625,1724764920.8887753
1724764920.9385395,8.25,-0.009504556655883789,1724764920952091300,1724764920941609100,0.0,-0.0235294122248888,0.5137255191802979,13.68008041381836,-0.011566991917788982,0.047703225165605545,87.19092559814453,330.83203125,0.30609995126724243,0.4230700135231018,-0.1996532529592514,-0.1595153957605362,1724764920.9416094
1724764920.9958503,8.3,-0.01681537628173757,1724764920994853600,1724764920994853600,0.0,-0.0235294122248888,0.4627451002597809,13.790263175964355,-0.010325177572667599,0.047855012118816376,87.9506607055664,330.8370361328125,0.30609023571014404,0.4116382300853729,-0.1987038552761078,-0.15997314453125,1724764920.9948537
1724764921.0620441,8.35,-0.033009195327759144,1724764921069553900,1724764921060047000,0.0,-0.0235294122248888,0.4039215743541717,13.884099006652832,-0.009220821782946587,0.04779902845621109,88.6739501953125,330.84173583984375,0.3060739040374756,0.3991530239582062,-0.19713973999023438,-0.1604613959789276,1724764921.0600471
1724764921.0960298,8.4,-0.016994810104369762,1724764921091042800,1724764921092040200,0.0,-0.0235294122248888,0.3764705955982208,13.923773765563965,-0.008734457194805145,0.04767784848809242,89.0140609741211,330.84393310546875,0.3060629665851593,0.39282551407814026,-0.19608105719089508,-0.16070552170276642,1724764921.0920403
1724764921.1507642,8.450000000000001,-0.02172927856445206,1724764921144598800,1724764921145595900,0.0,-0.0235294122248888,0.364705890417099,14.001712799072266,-0.007717904634773731,0.04716172441840172,89.77201843261719,330.8487854003906,0.3060294985771179,0.37778693437576294,-0.1928981989622116,-0.1612548679113388,1724764921.145596
1724764921.201613,8.5,-0.022578001022338867,1724764921207596900,1724764921200615000,0.0,-0.0235294122248888,0.337254911661148,14.092140197753906,-0.006445875857025385,0.04592452198266983,90.85381317138672,330.8553466796875,0.30596426129341125,0.3544186055660248,-0.18664173781871796,-0.1620483249425888,1724764921.200615
1724764921.2531214,8.55,-0.024086427688597922,1724764921259142200,1724764921254627300,0.0,-0.0235294122248888,0.3215686380863189,14.142341613769531,-0.005696639884263277,0.04488891735672951,91.58663940429688,330.8596496582031,0.305913507938385,0.3375338912010193,-0.18179230391979218,-0.1625671237707138,1724764921.2546275
1724764921.2827325,8.6,-0.0036975383758548475,1724764921289861600,1724764921286722500,0.0,-0.0235294122248888,0.3137255012989044,14.16690731048584,-0.005308833438903093,0.0442553386092186,91.99958038330078,330.86199951171875,0.30588364601135254,0.32769232988357544,-0.178916797041893,-0.1628417819738388,1724764921.2867227
1724764921.3372276,8.65,-0.008192634582519176,1724764921343089500,1724764921338733900,0.0,-0.0235294122248888,0.3098039329051971,14.20707893371582,-0.004649331793189049,0.04307154566049576,92.77738189697266,330.86614990234375,0.30582818388938904,0.3086055517196655,-0.17364388704299927,-0.1633605808019638,1724764921.338734
1724764921.3927045,8.700000000000001,-0.013669538497923739,1724764921396693700,1724764921391707200,0.0,-0.0235294122248888,0.3098039329051971,14.241554260253906,-0.004076444078236818,0.041938308626413345,93.55182647705078,330.8701477050781,0.3057762384414673,0.2889866828918457,-0.16867151856422424,-0.1637878268957138,1724764921.3917072
1724764921.447124,8.75,-0.01808905601501465,1724764921450071000,1724764921444132500,0.0,-0.0235294122248888,0.3098039329051971,14.272943496704102,-0.0035792971029877663,0.040932636708021164,94.3309555053711,330.8738708496094,0.305730402469635,0.26874956488609314,-0.16427287459373474,-0.164215087890625,1724764921.4441328
1724764921.4852653,8.8,-0.0062303066253655,1724764921492508800,1724764921486261700,0.0,-0.0235294122248888,0.3058823645114898,14.287393569946289,-0.0033655718434602022,0.04051700606942177,94.70884704589844,330.8756103515625,0.30571115016937256,0.25878801941871643,-0.1624423861503601,-0.164398193359375,1724764921.4862618
1724764921.5415158,8.85,-0.01248087882995641,1724764921546501400,1724764921539518600,0.0,-0.0235294122248888,0.2901960909366607,14.315832138061523,-0.0029764531645923853,0.03980322182178497,95.48623657226562,330.8790283203125,0.3056778311729431,0.23805038630962372,-0.15926633775234222,-0.1647339016199112,1724764921.5395188
1724764921.601299,8.9,-0.022264099121093395,1724764921608279500,1724764921602295400,0.0,-0.0235294122248888,0.2039215713739395,14.342216491699219,-0.0026410368736833334,0.03924817591905594,96.28225708007812,330.8821716308594,0.30565160512924194,0.21653421223163605,-0.15676648914813995,-0.1650390475988388,1724764921.6022954
1724764921.6405597,8.950000000000001,-0.011524724960326083,1724764921650640500,1724764921644548400,0.0,-0.0235294122248888,0.125490203499794,14.35986042022705,-0.002352324314415455,0.0387544147670269,97.08479309082031,330.8851623535156,0.3056289553642273,0.19456058740615845,-0.1546013206243515,-0.165283203125,1724764921.6445484
1724764921.686578,9.0,-0.007543087005615234,1724764921693074100,1724764921686578000,0.0,-0.0235294122248888,0.0862745121121406,14.362210273742676,-0.0022117027547210455,0.03843165934085846,97.49613189697266,330.8865661621094,0.30561527609825134,0.18315008282661438,-0.15328992903232574,-0.1654052734375,1724764921.686578
1724764921.7405477,9.05,-0.01151270866393972,1724764921745535100,1724764921741544800,0.0,-0.0235294122248888,0.0784313753247261,14.352067947387695,-0.001949872588738799,0.037608884274959564,98.24754333496094,330.8888854980469,0.30558204650878906,0.16195882856845856,-0.15011389553546906,-0.165618896484375,1724764921.7415447
1724764921.786905,9.1,-0.007870101928711293,1724764921788411700,1724764921782915400,0.0,-0.0235294122248888,0.0705882385373115,14.327249526977539,-0.0016560953808948398,0.03643609583377838,99.00162506103516,330.8910217285156,0.30553579330444336,0.14014935493469238,-0.145694762468338,-0.1658019721508026,1724764921.7829154
1724764921.835826,9.15,-0.00679097175598109,1724764921841351400,1724764921834827400,0.0,-0.0235294122248888,0.062745101749897,14.292902946472168,-0.0013464904623106122,0.03503800928592682,99.75959014892578,330.8928527832031,0.30548056960105896,0.11765830963850021,-0.14044234156608582,-0.165985107421875,1724764921.8348277
1724764921.912592,9.200000000000001,-0.03355698585510147,1724764921915584200,1724764921908575300,0.0,-0.0235294122248888,0.0549019612371921,14.249207496643066,-0.0010293845552951097,0.03347991034388542,100.56578826904297,330.8944396972656,0.3054196834564209,0.09316062182188034,-0.13460935652256012,-0.1661987006664276,1724764921.9085753
