frame_timestamp_original,frame_timestamp_new,residual,time_hardwaremanager,time_carla,brake,steer,throttle,ego_vx,ego_vy,ego_vz,ego_x,ego_y,ego_z,ego_yaw,ego_pitch,ego_roll,time_carla_s
1724940545.172444,0.0,0.0,1724940545176433500,1724940545177624200,-1.0,0.0,1.0,-4.188235834590159e-06,1.612406049389392e-05,-0.0034572503063827753,51.57195281982422,330.84967041015625,0.3057778477668762,4.153900226810947e-05,-0.13061369955539703,-0.1614074409008026,1724940545.1776245
1724940545.246937,0.05,-0.024492931365966794,1724940545242439400,1724940545242439400,-1.0,0.0,1.0,-1.260907174582826e-05,2.5965415261453018e-05,-0.0030676776077598333,51.57195281982422,330.84967041015625,0.30557548999786377,4.054821692989208e-05,-0.1317133605480194,-0.1608886569738388,1724940545.2424395
1724940545.2894785,0.1,-0.01703443527221679,1724940545284486000,1724940545284486000,-1.0,0.0,1.0,-1.6487434550072066e-05,2.41670306877495e-07,-0.001291916356422007,51.57195281982422,330.84967041015625,0.3054816424846649,4.117815478821285e-05,-0.1325671374797821,-0.1605834811925888,1724940545.284486
1724940545.3225453,0.15000000000000002,-0.00010118484497068092,1724940545317558500,1724940545317558500,-1.0,0.0,1.0,-1.4227246538212057e-05,-1.3985956684336998e-05,-0.0019202018156647682,51.57195281982422,330.84967041015625,0.30543434619903564,4.107087443117052e-05,-0.13296328485012054,-0.1604614108800888,1724940545.3175585
1724940545.3826857,0.2,-0.010241556167602528,1724940545380691800,1724940545381689100,-1.0,0.0,1.0,-1.3466577001963742e-05,-6.648171620327048e-06,-0.0003508756053633988,51.57195281982422,330.84967041015625,0.3053776025772095,4.0466224163537845e-05,-0.13399463891983032,-0.160186767578125,1724940545.3816893
1724940545.4345212,0.25,-0.012077093124389648,1724940545437531600,1724940545434521200,-1.0,0.0,1.0,-9.231674084730912e-06,-5.996108939143596e-06,-0.0007115506450645626,51.57195281982422,330.84967041015625,0.3053438067436218,4.019011976197362e-05,-0.13452057540416718,-0.1600341498851776,1724940545.4345212
1724940545.493441,0.30000000000000004,-0.02099699974060054,1724940545490450000,1724940545488455800,-1.0,0.0,1.0,-6.431888323277235e-06,-4.507322501012823e-06,-0.0006014734390191734,51.57195281982422,330.84967041015625,0.30533236265182495,4.000528497272171e-05,-0.13488256931304932,-0.1599731147289276,1724940545.4884558
1724940545.5465915,0.35000000000000003,-0.02414741516113278,1724940545553050300,1724940545551052800,-1.0,0.0,1.0,-2.063210615688149e-07,-3.066039084842487e-07,-4.893847290077247e-05,51.57195281982422,330.84967041015625,0.30532678961753845,3.988058597315103e-05,-0.13513527810573578,-0.1599120944738388,1724940545.5510528
1724940545.5874531,0.4,-0.015009021759033181,1724940545586434800,1724940545582932500,-1.0,0.0,1.0,-7.207480052784376e-07,-5.364258726103799e-08,0.00016173940093722194,51.57195281982422,330.84967041015625,0.3053312599658966,3.988058597315103e-05,-0.13513527810573578,-0.1599120944738388,1724940545.5829325
1724940545.6439514,0.45,-0.02150731086730956,1724940545651483000,1724940545647495100,-1.0,0.0,1.0,-2.62181686139229e-07,-8.281626264761144e-07,-2.6808942493516952e-05,51.57195281982422,330.84967041015625,0.30534765124320984,3.988058597315103e-05,-0.13513527810573578,-0.1599120944738388,1724940545.6474953
1724940545.674412,0.5,-0.001967906951904297,1724940545683449600,1724940545678464400,-1.0,0.0,1.0,-4.795469976670574e-07,-3.716172898293735e-07,9.045409387908876e-05,51.57195281982422,330.84967041015625,0.3053269386291504,3.988058597315103e-05,-0.13513527810573578,-0.1599120944738388,1724940545.6784647
1724940545.728466,0.55,-0.006021928787231401,1724940545737949300,1724940545731457800,-1.0,0.0,1.0,-4.00704863068313e-07,-2.7273097202851204e-07,8.396474731853232e-05,51.57195281982422,330.84967041015625,0.30532827973365784,3.988058597315103e-05,-0.13513527810573578,-0.1599120944738388,1724940545.731458
1724940545.7776158,0.6000000000000001,-0.005171680450439364,1724940545780608000,1724940545774479700,-1.0,0.0,1.0,1.614227187474171e-07,-6.919956376805203e-07,-0.00012834317749366164,51.57195281982422,330.84967041015625,0.3053314983844757,3.988058597315103e-05,-0.13513527810573578,-0.1599120944738388,1724940545.7744796
1724940545.8274717,0.65,-0.005027627944946267,1724940545833458100,1724940545826452100,-1.0,0.0,1.0,5.290206672725617e-07,-9.456161933485419e-07,-0.0002616355777718127,51.57195281982422,330.84967041015625,0.3053213059902191,3.988058597315103e-05,-0.13513527810573578,-0.1599120944738388,1724940545.8264523
1724940545.8738976,0.7000000000000001,-0.0014534473419188787,1724940545874893700,1724940545868910700,-1.0,0.0,1.0,-1.2430912192940013e-06,1.1896970590896672e-06,0.0004945603432133794,51.57195281982422,330.84967041015625,0.3053331971168518,3.988058597315103e-05,-0.13513527810573578,-0.1599120944738388,1724940545.8689108
1724940545.9450133,0.75,-0.02256917953491211,1724940545950553000,1724940545944016100,-1.0,0.0,1.0,0.0,0.0,0.0,51.57195281982422,330.84967041015625,0.3053343594074249,3.964797724620439e-05,-0.13522407412528992,-0.1597900092601776,1724940545.9440162
1724940545.991615,0.8,-0.019170951843261674,1724940546004482200,1724940545996601600,-1.0,0.0,1.0,-1.1776330666180002e-06,1.3399090903476463e-06,0.000503204413689673,51.57195281982422,330.84967041015625,0.3053382933139801,3.964797724620439e-05,-0.13522407412528992,-0.1597900092601776,1724940545.9966018
1724940546.0405235,0.8500000000000001,-0.018079423904418856,1724940546036513900,1724940546037530500,-1.0,0.0,1.0,3.658639968762145e-07,-4.6782804474787554e-07,-0.0001504430256318301,51.57195281982422,330.84967041015625,0.3053344190120697,3.964797724620439e-05,-0.13522407412528992,-0.1597900092601776,1724940546.0375307
1724940546.0865262,0.9,-0.014082050323486306,1724940546088695900,1724940546089692800,-1.0,0.0,1.0,-1.2014527328574331e-06,1.3344999842956895e-06,0.0005186107009649277,51.57195281982422,330.84967041015625,0.3053406774997711,3.964797724620439e-05,-0.13522407412528992,-0.1597900092601776,1724940546.0896928
1724940546.1354392,0.9500000000000001,-0.012995052337646418,1724940546142281300,1724940546133443500,-1.0,0.0,1.0,4.768941721522424e-07,-5.44791419088142e-07,-0.0002005305577768013,51.57195281982422,330.84967041015625,0.305332750082016,3.964797724620439e-05,-0.13522407412528992,-0.1597900092601776,1724940546.1334436
1724940546.211656,1.0,-0.03921198844909668,1724940546217146500,1724940546208665000,-1.0,0.0,1.0,2.793640341280934e-08,-2.1969993824200174e-08,-1.2964143934368622e-05,51.57195281982422,330.84967041015625,0.30533379316329956,3.964797724620439e-05,-0.13522407412528992,-0.1597900092601776,1724940546.2086651
1724940546.233788,1.05,-0.011343908309936479,1724940546238579900,1724940546229798600,-1.0,0.0,1.0,-1.2227860679558944e-06,1.4435022421821486e-06,0.0005217917496338487,51.57195281982422,330.84967041015625,0.3053455054759979,3.964797724620439e-05,-0.13522407412528992,-0.1597900092601776,1724940546.2297988
1724940546.294993,1.1,-0.022548818588256747,1724940546301521500,1724940546293996800,-1.0,0.0,1.0,7.06653793258738e-07,-8.495389351992344e-07,-0.0002968613989651203,51.57195281982422,330.84967041015625,0.3053162097930908,3.964797724620439e-05,-0.13522407412528992,-0.1597900092601776,1724940546.2939968
1724940546.3456447,1.1500000000000001,-0.023200607299804554,1724940546343649700,1724940546336647300,-1.0,0.0,1.0,-1.2721371831503347e-06,1.4541345763063873e-06,0.0005433706101030111,51.57195281982422,330.84967041015625,0.30532607436180115,3.964797724620439e-05,-0.13522407412528992,-0.1597900092601776,1724940546.3366475
1724940546.3917677,1.2000000000000002,-0.019323635101318182,1724940546398463400,1724940546388776700,-1.0,0.0,1.0,-1.667028868723719e-06,1.9206595425202977e-06,0.0007076567271724343,51.57195281982422,330.84967041015625,0.30534228682518005,3.964797724620439e-05,-0.13522407412528992,-0.1597900092601776,1724940546.3887768
1724940546.4419494,1.25,-0.01950526237487793,1724940546452490900,1724940546442946600,-1.0,0.0,1.0,4.866302560913027e-07,-6.263436489462038e-07,-0.00020735771977342665,51.57195281982422,330.84967041015625,0.30533477663993835,3.964797724620439e-05,-0.13522407412528992,-0.1597900092601776,1724940546.4429467
1724940546.4970214,1.3,-0.024577331542968706,1724940546505005300,1724940546495520400,-1.0,0.0,1.0,2.903509823681816e-07,-3.2501702662557364e-07,-0.000125044520245865,51.57195281982422,330.84967041015625,0.3053440451622009,3.964797724620439e-05,-0.13522407412528992,-0.1597900092601776,1724940546.4955206
1724940546.5494483,1.35,-0.027004146575927646,1724940546559546800,1724940546550444600,-1.0,0.0,1.0,-1.045444150804542e-06,1.2515071148300194e-06,0.0004439780313987285,51.57195281982422,330.84967041015625,0.3053622841835022,3.964797724620439e-05,-0.13522407412528992,-0.1597900092601776,1724940546.5504446
1724940546.5764673,1.4000000000000001,-0.004023170471191273,1724940546580802500,1724940546571479400,-1.0,0.0,1.0,8.012716534722131e-07,-9.33563569560647e-07,-0.0003407041367609054,51.57195281982422,330.84967041015625,0.30535364151000977,3.964797724620439e-05,-0.13522407412528992,-0.1597900092601776,1724940546.5714793
1724940546.6234376,1.4500000000000002,-0.0009935379028318536,1724940546633493800,1724940546624431000,-1.0,0.0,1.0,-9.634437674321816e-07,1.0981819968947093e-06,0.00040363045991398394,51.57195281982422,330.84967041015625,0.30534738302230835,3.964797724620439e-05,-0.13522407412528992,-0.1597900092601776,1724940546.6244311
1724940546.6904435,1.5,-0.01799941062927246,1724940546697518800,1724940546689445300,-1.0,0.0,1.0,5.059038699073426e-07,-6.153530307528854e-07,-0.00021592635312117636,51.57195281982422,330.84967041015625,0.3053310215473175,3.964797724620439e-05,-0.13522407412528992,-0.1597900092601776,1724940546.6894455
1724940546.7419348,1.55,-0.01949067115783687,1724940546740937400,1724940546742930200,-1.0,0.0,1.0,9.224106065630622e-07,-1.0483803407623782e-06,-0.00038939816295169294,51.57195281982422,330.84967041015625,0.30532771348953247,3.964797724620439e-05,-0.13522407412528992,-0.1597900092601776,1724940546.7429302
1724940546.7849317,1.6,-0.01248755455017081,1724940546784931600,1724940546786437800,-1.0,0.0,1.0,-2.5915727519532084e-07,3.372886965280486e-07,0.0001103602844523266,51.57195281982422,330.84967041015625,0.3053378462791443,3.964797724620439e-05,-0.13522407412528992,-0.1597900092601776,1724940546.786438
1724940546.8316932,1.6500000000000001,-0.009249067306518421,1724940546827704500,1724940546829699500,-1.0,0.0,1.0,1.1282571676929365e-06,-1.320143155680853e-06,-0.00047505603288300335,51.57195281982422,330.84967041015625,0.3053252696990967,3.964797724620439e-05,-0.13522407412528992,-0.1597900092601776,1724940546.8296998
1724940546.878511,1.7000000000000002,-0.006066846847534002,1724940546881503800,1724940546883498400,-1.0,0.0,1.0,1.0175070883633452e-06,-1.1539397064552759e-06,-0.0004359620506875217,51.57195281982422,330.84967041015625,0.3053045868873596,3.964797724620439e-05,-0.13522407412528992,-0.1597900092601776,1724940546.8834987
1724940546.9245963,1.75,-0.0021522045135498047,1724940546924596100,1724940546926590300,-1.0,0.0,1.0,-1.234938849847822e-06,1.3991746072861133e-06,0.0005198550061322749,51.57195281982422,330.84967041015625,0.30531010031700134,3.964797724620439e-05,-0.13522407412528992,-0.1597900092601776,1724940546.9265902
1724940546.9729462,1.8,-0.0005020618438720259,1724940546967956700,1724940546968957500,-1.0,0.0,1.0,3.792812606207008e-07,-4.583441750583006e-07,-0.0001612759951967746,51.57195281982422,330.84967041015625,0.3053054213523865,3.964797724620439e-05,-0.13522407412528992,-0.1597900092601776,1724940546.9689577
1724940547.044982,1.85,-0.022537851333618075,1724940547041988600,1724940547042986000,0.0,-0.0235294122248888,0.0235294122248888,9.053206326825602e-07,-1.050804144142603e-06,-0.00038540171226486564,51.57195281982422,330.84967041015625,0.30530330538749695,3.964797724620439e-05,-0.13522407412528992,-0.1597900092601776,1724940547.0429862
1724940547.0906174,1.9000000000000001,-0.018173313140869007,1724940547085415600,1724940547086412800,0.0,-0.0235294122248888,0.168627455830574,9.049509941405631e-08,-9.882535323413322e-08,-3.9450042095268145e-05,51.57195281982422,330.84967041015625,0.30530303716659546,3.964797724620439e-05,-0.13522407412528992,-0.1597900092601776,1724940547.086413
1724940547.1254377,1.9500000000000002,-0.0029936313629148614,1724940547127969200,1724940547128968900,0.0,-0.0235294122248888,0.3882353007793426,0.05390186607837677,-0.00010723475134000182,0.0002514653606340289,51.57400131225586,330.84967041015625,0.3053482472896576,0.00010361048043705523,-0.13794249296188354,-0.1597900241613388,1724940547.128969
1724940547.179674,2.0,-0.007229804992675781,1724940547189841600,1724940547181669000,0.0,-0.0235294122248888,0.5803921818733215,0.05638686567544937,-0.0001050566352205351,0.0005030083120800555,51.57611846923828,330.84967041015625,0.30536797642707825,0.00010576997010502964,-0.13931536674499512,-0.1597900241613388,1724940547.1816692
1724940547.2325718,2.0500000000000003,-0.010127735137939187,1724940547242456000,1724940547233568300,0.0,-0.0235294122248888,0.7372549176216125,0.31962156295776367,0.00032480305526405573,0.001477122656069696,51.587684631347656,330.8497619628906,0.30549314618110657,-0.005340576171875,-0.15128184854984283,-0.1597289741039276,1724940547.2335684
1724940547.2829118,2.1,-0.010467672348022372,1724940547295407400,1724940547287426600,0.0,-0.0235294122248888,0.8078431487083435,0.5464172959327698,-0.0024124025367200375,0.001472459640353918,51.61011505126953,330.8497619628906,0.3056887984275818,-0.010681151412427425,-0.17095962166786194,-0.16009521484375,1724940547.2874267
1724940547.3395135,2.15,-0.017069435119628995,1724940547348499600,1724940547340510300,0.0,-0.0235294122248888,0.8235294222831726,0.8042363524436951,-0.0012819726252928376,0.0033368822187185287,51.64207077026367,330.8496398925781,0.3059234023094177,-0.003631591796875,-0.19222883880138397,-0.1598815768957138,1724940547.3405104
1724940547.373432,2.2,-0.0009878158569334161,1724940547379956100,1724940547372433700,0.0,-0.0235294122248888,0.8352941274642944,0.9996210336685181,-0.0015693296445533633,0.0035129478201270103,51.66394805908203,330.8496398925781,0.3060537278652191,-0.0017395018367096782,-0.20483052730560303,-0.159759521484375,1724940547.3724337
1724940547.4226277,2.25,-0.00018358230590820312,1724940547431752900,1724940547424622400,0.0,-0.0235294122248888,0.8509804010391235,1.2997499704360962,-0.0016127885319292545,0.005228198599070311,51.74453353881836,330.84954833984375,0.30640262365341187,0.003990046214312315,-0.23721246421337128,-0.1593627780675888,1724940547.4246225
1724940547.4734378,2.3000000000000003,-0.0009936809539792257,1724940547484952200,1724940547476932900,0.0,-0.0235294122248888,0.8901960849761963,1.5834907293319702,-0.0019463659264147282,0.007528193295001984,51.81175231933594,330.849609375,0.3065633773803711,0.0025346449110656977,-0.25249841809272766,-0.1593017280101776,1724940547.476933
1724940547.5309935,2.35,-0.0085493564605712,1724940547538638200,1724940547529996300,0.0,-0.0235294122248888,0.9058823585510254,1.8469773530960083,-0.0022336840629577637,0.008644839748740196,51.89613723754883,330.849609375,0.30670973658561707,0.002700591692700982,-0.2673608958721161,-0.1592101752758026,1724940547.5299964
1724940547.584536,2.4000000000000004,-0.01209197044372523,1724940547591458500,1724940547582540800,0.0,-0.0235294122248888,0.9215686321258544,2.084393262863159,-0.002523737493902445,0.01051633246243,51.98065185546875,330.849609375,0.30682986974716187,0.00206049089320004,-0.27691635489463806,-0.1591796875,1724940547.582541
1724940547.6327004,2.45,-0.010256338119506658,1724940547644491300,1724940547637219500,0.0,-0.0235294122248888,0.9372549057006836,2.448695659637451,-0.002935568569228053,0.012515991926193237,52.143348693847656,330.8492431640625,0.30690479278564453,0.0008007896831259131,-0.2853379547595978,-0.159149169921875,1724940547.6372197
1724940547.7005157,2.5,-0.02807164192199707,1724940547708623400,1724940547701512600,0.0,-0.0235294122248888,0.95686274766922,2.8108959197998047,-0.003334307111799717,0.014820135198533535,52.330013275146484,330.84893798828125,0.30692005157470703,-0.0009765624417923391,-0.287106990814209,-0.1591491550207138,1724940547.7015128
1724940547.7339528,2.5500000000000003,-0.011508655548095437,1724940547740466100,1724940547732954900,0.0,-0.0235294122248888,1.0,2.9315056800842285,-0.0034682799596339464,0.014694955199956894,52.39726257324219,330.84881591796875,0.30691826343536377,-0.00164794921875,-0.2869225740432739,-0.1591796576976776,1724940547.732955
1724940547.7764142,2.6,-0.003970050811767489,1724940547782169400,1724940547774419500,0.0,-0.0235294122248888,1.0,3.1744861602783203,-0.003731141332536936,0.01644582487642765,52.538055419921875,330.84857177734375,0.3069135844707489,-0.0030517578125,-0.2861234247684479,-0.1591796725988388,1724940547.7744195
1724940547.840942,2.6500000000000004,-0.018497800827026012,1724940547846437700,1724940547838945900,0.0,0.0235294122248888,1.0,3.4320147037506104,-0.004009748809039593,0.016827620565891266,52.697025299072266,330.848388671875,0.30689650774002075,-0.004638671409338713,-0.2853721082210541,-0.1592101901769638,1724940547.8389459
1724940547.873945,2.7,-0.0015008926391599786,1724940547878946900,1724940547871950400,0.0,0.0235294122248888,1.0,3.679279088973999,0.0016462855273857713,0.018831908702850342,52.86112976074219,330.84832763671875,0.30689600110054016,-0.0018920896109193563,-0.2847574055194855,-0.1581420600414276,1724940547.8719504
1724940547.9380043,2.75,-0.015560150146484375,1724940547942993500,1724940547936443400,0.0,0.0705882385373115,1.0,4.053585529327393,0.007395843975245953,0.020668864250183105,53.13230514526367,330.8484802246094,0.3068905472755432,0.0109443673864007,-0.28411537408828735,-0.156463623046875,1724940547.9364436
1724940547.9989805,2.8000000000000003,-0.026536417007446023,1724940548007955100,1724940548000975700,0.0,0.0235294122248888,1.0,4.310956954956055,0.011720952577888966,0.02099258452653885,53.33498764038086,330.8488464355469,0.3068765699863434,0.029021965339779854,-0.283753365278244,-0.1548462063074112,1724940548.0009756
1724940548.0287204,2.85,-0.006276273727416903,1724940548039448500,1724940548032710400,0.0,0.0235294122248888,1.0,4.552264213562012,0.006855980958789587,0.022346341982483864,53.53701400756836,330.84912109375,0.30687958002090454,0.046048421412706375,-0.2834118604660034,-0.1552429497241974,1724940548.0327106
1724940548.0814419,2.9000000000000004,-0.008997774124145153,1724940548082438500,1724940548076428900,0.0,0.0235294122248888,1.0,4.794770240783691,0.005145539063960314,0.02417629212141037,53.751956939697266,330.8494567871094,0.3068805932998657,0.060972049832344055,-0.2830498516559601,-0.1562499850988388,1724940548.076429
1724940548.1485205,2.95,-0.026076364517211736,1724940548157513800,1724940548152509300,0.0,0.0235294122248888,1.0,5.1752519607543945,0.004513343796133995,0.027790138497948647,54.11342239379883,330.84991455078125,0.30695030093193054,0.08308974653482437,-0.28244197368621826,-0.1571960300207138,1724940548.1525092
1724940548.185048,3.0,-0.012603998184204102,1724940548189566500,1724940548185048000,0.0,0.0235294122248888,1.0,5.289425373077393,0.004487126599997282,0.027664996683597565,54.22779083251953,330.8500671386719,0.3069879412651062,0.08971565961837769,-0.2822302281856537,-0.1572875827550888,1724940548.185048
1724940548.2470546,3.0500000000000003,-0.0246104717254636,1724940548253482700,1724940548250490300,0.0,0.0235294122248888,1.0,5.649467945098877,0.004535875283181667,0.02808365970849991,54.60620880126953,330.8509216308594,0.3070380687713623,0.11103560775518417,-0.28155404329299927,-0.1572875678539276,1724940548.2504904
1724940548.2809908,3.1,-0.008546733856201083,1724940548284979800,1724940548281987900,0.0,0.0235294122248888,1.0,5.781643390655518,0.004566882271319628,0.02844824828207493,54.75205612182617,330.85125732421875,0.3070392310619354,0.11909814924001694,-0.28128767013549805,-0.1572265475988388,1724940548.281988
1724940548.337946,3.1500000000000004,-0.015501832962035778,1724940548339943600,1724940548335031300,0.0,0.0235294122248888,1.0,6.148311614990234,0.004642633721232414,0.029799165204167366,55.175994873046875,330.8522644042969,0.3070196211338043,0.14225739240646362,-0.280488520860672,-0.156982421875,1724940548.3350315
1724940548.3962417,3.2,-0.023797559738159002,1724940548403713400,1724940548401718200,0.0,0.0705882385373115,1.0,6.402646541595459,0.009516263380646706,0.030917638912796974,55.48709487915039,330.85321044921875,0.3069976568222046,0.16107067465782166,-0.2799353003501892,-0.1561279147863388,1724940548.4017184
1724940548.4314265,3.25,-0.008982419967651367,1724940548435417200,1724940548433420600,0.0,0.0705882385373115,1.0,6.629820823669434,0.014012402854859829,0.03197861090302467,55.7767333984375,330.8543701171875,0.30697786808013916,0.1852674037218094,-0.27941620349884033,-0.1542968451976776,1724940548.4334207
1724940548.4949214,3.3000000000000003,-0.02247734069824192,1724940548500630500,1724940548498632300,0.0,0.1176470592617988,1.0,6.98016881942749,0.023746956139802933,0.03364446386694908,56.245697021484375,330.85687255859375,0.3069506883621216,0.2369324117898941,-0.27863073348999023,-0.1510924994945526,1724940548.4986322
1724940548.5244637,3.35,-0.0020195484161376065,1724940548522468300,1724940548520474500,0.0,0.1176470592617988,1.0,7.10232400894165,0.02617740072309971,0.03422743082046509,56.41558837890625,330.8580017089844,0.30694255232810974,0.26051875948905945,-0.27835068106651306,-0.14984130859375,1724940548.5204747
1724940548.5919437,3.4000000000000004,-0.019499635696410778,1724940548597496200,1724940548594935100,0.0,0.0705882385373115,1.0,7.4473490715026855,0.024617455899715424,0.03589051961898804,56.91328430175781,330.86163330078125,0.306923508644104,0.33599311113357544,-0.2775857150554657,-0.1483764797449112,1724940548.5949352
1724940548.6299293,3.45,-0.007485198974609197,1724940548628932100,1724940548627931900,0.0,0.0705882385373115,1.0,7.555916786193848,0.02203136868774891,0.03641302138566971,57.07537841796875,330.8628845214844,0.30691856145858765,0.35934826731681824,-0.2773398160934448,-0.148956298828125,1724940548.627932
1724940548.7028916,3.5,-0.03044748306274414,1724940548702891400,1724940548700898300,0.0,0.0235294122248888,1.0,8.02403736114502,0.009585111401975155,0.038625359535217285,57.80513000488281,330.86865234375,0.306901216506958,0.4508052170276642,-0.27627429366111755,-0.1526794582605362,1724940548.7008984
1724940548.7277896,3.5500000000000003,-0.005345535278320046,1724940548733773600,1724940548731778900,0.0,-0.0235294122248888,1.0,8.143138885498047,0.0022214751224964857,0.03919157013297081,57.99885559082031,330.8701171875,0.3068975508213043,0.4676784873008728,-0.27600109577178955,-0.154449462890625,1724940548.7317789
1724940548.784586,3.6,-0.012141847610473544,1724940548788451200,1724940548786580100,0.0,-0.0235294122248888,1.0,8.366308212280273,-0.005714870058000088,0.04022696614265442,58.370609283447266,330.8729248046875,0.3068912923336029,0.48999226093292236,-0.2754819989204407,-0.1577148288488388,1724940548.7865803
1724940548.8534954,3.6500000000000004,-0.031051254272460582,1724940548851501000,1724940548851501000,0.0,-0.0235294122248888,1.0,8.704607963562012,-0.010179547592997551,0.04176207259297371,58.956302642822266,330.8772888183594,0.30688270926475525,0.5082291960716248,-0.2747170329093933,-0.1600646823644638,1724940548.8515012
1724940548.8780031,3.7,-0.005559015274047674,1724940548873107800,1724940548873107800,0.0,-0.0235294122248888,1.0,8.825813293457031,-0.01071870792657137,0.042306043207645416,59.172733306884766,330.87890625,0.30687981843948364,0.5117271542549133,-0.2744438052177429,-0.1602783203125,1724940548.873108
1724940548.936501,3.75,-0.014056921005249023,1724940548948017300,1724940548937526100,0.0,-0.0235294122248888,1.0,9.159428596496582,-0.01105888094753027,0.04378625378012657,59.78642272949219,330.8835754394531,0.30687215924263,0.5161105990409851,-0.27367883920669556,-0.16009521484375,1724940548.9375262
1724940549.0027413,3.8000000000000003,-0.03029723167419407,1724940549011451200,1724940549001744000,0.0,-0.0235294122248888,1.0,9.496289253234863,-0.010769273154437542,0.045275092124938965,60.43324661254883,330.88861083984375,0.3068646788597107,0.5152607560157776,-0.2729479968547821,-0.15963740646839142,1724940549.001744
1724940549.0365438,3.85,-0.014099740982055575,1724940549042652500,1724940549033551500,0.0,-0.0235294122248888,1.0,9.616050720214844,-0.010633058845996857,0.04580322653055191,60.66986846923828,330.8905334472656,0.3068620264530182,0.5140959620475769,-0.2727021276950836,-0.1595153510570526,1724940549.0335517
1724940549.0920048,3.9000000000000004,-0.019560670852660778,1724940549096504900,1724940549086929200,0.0,-0.0235294122248888,1.0,9.838767051696777,-0.010392271913588047,0.04677446186542511,61.347537994384766,330.8959045410156,0.3068546652793884,0.509194016456604,-0.27193713188171387,-0.1593627631664276,1724940549.0869293
1724940549.1434383,3.95,-0.02099423408508283,1724940549138451700,1724940549138451700,0.0,-0.0235294122248888,0.8980392217636108,10.052732467651367,-0.010192262940108776,0.04770300164818764,61.56244659423828,330.8975830078125,0.3068523705005646,0.5072852373123169,-0.27169808745384216,-0.1593628078699112,1724940549.1384518
1724940549.2019503,4.0,-0.029506206512451172,1724940549213452400,1724940549202946500,0.0,-0.0235294122248888,0.572549045085907,10.47611141204834,-0.009830163791775703,0.04932916909456253,62.53195571899414,330.9051818847656,0.30683085322380066,0.4971604645252228,-0.26962852478027344,-0.159576416015625,1724940549.2029467
1724940549.241443,4.05,-0.018998813629150568,1724940549245432200,1724940549234930300,0.0,-0.0235294122248888,0.545098066329956,10.56256103515625,-0.009720447473227978,0.04945531114935875,62.776790618896484,330.9071044921875,0.30681470036506653,0.49416470527648926,-0.2680985629558563,-0.159637451171875,1724940549.2349303
1724940549.2766361,4.1000000000000005,-0.0041920185089106,1724940549277141500,1724940549267143500,0.0,-0.0235294122248888,0.5137255191802979,10.706811904907227,-0.0094681391492486,0.049216773360967636,63.24706268310547,330.91070556640625,0.30676373839378357,0.4877888858318329,-0.26320815086364746,-0.159820556640625,1724940549.2671435
1724940549.3387372,4.15,-0.016293144226073863,1724940549341732100,1724940549342729600,0.0,-0.0235294122248888,0.4588235318660736,10.832634925842285,-0.00915343128144741,0.048350486904382706,63.73820495605469,330.9145202636719,0.3066842257976532,0.4802243411540985,-0.2555788457393646,-0.1600341647863388,1724940549.3427298
1724940549.3937807,4.2,-0.021336603164672674,1724940549393780800,1724940549385461000,0.0,-0.0235294122248888,0.4117647111415863,10.946873664855957,-0.008774063549935818,0.046866849064826965,64.48554229736328,330.9201965332031,0.3065263032913208,0.46701085567474365,-0.2404772937297821,-0.1604003757238388,1724940549.385461
1724940549.444449,4.25,-0.02200484275817871,1724940549458684300,1724940549448965900,0.0,-0.0235294122248888,0.3529411852359772,11.073897361755371,-0.008234892971813679,0.04432970657944679,64.99760437011719,330.9240417480469,0.30640867352485657,0.4569054841995239,-0.22921431064605713,-0.1607055515050888,1724940549.448966
1724940549.4746706,4.3,-0.0022265434265138495,1724940549468686500,1724940549469683900,0.0,-0.0235294122248888,0.3450980484485626,11.112187385559082,-0.008044052869081497,0.04335862398147583,65.25835418701172,330.92596435546875,0.3063480257987976,0.4514622390270233,-0.22341547906398773,-0.1608581393957138,1724940549.4696841
1724940549.5306132,4.3500000000000005,-0.008169078826903764,1724940549532608200,1724940549533605700,0.0,-0.0235294122248888,0.2823529541492462,11.202954292297363,-0.007504566106945276,0.0404869019985199,66.017822265625,330.9315490722656,0.3061758279800415,0.43456536531448364,-0.20693422853946686,-0.1613158881664276,1724940549.5336058
1724940549.600655,4.4,-0.028210973739623668,1724940549606639500,1724940549608148900,0.0,-0.0235294122248888,0.0,11.262457847595215,-0.00702041806653142,0.03783538565039635,66.74292755126953,330.9366760253906,0.3060234487056732,0.4171077609062195,-0.19235177338123322,-0.16174311935901642,1724940549.608149
1724940549.6345923,4.45,-0.012148189544677557,1724940549628607900,1724940549629605200,0.0,-0.0235294122248888,0.0,11.27343463897705,-0.006851775571703911,0.036884672939777374,67.0007553100586,330.9383850097656,0.30597105622291565,0.410590797662735,-0.1873452514410019,-0.1618957370519638,1724940549.6296053
1724940549.6864347,4.5,-0.013990640640258789,1724940549680939500,1724940549681935200,0.0,-0.0235294122248888,0.0,11.271259307861328,-0.006506783422082663,0.03485426306724548,67.50940704345703,330.94183349609375,0.30586352944374084,0.3971500098705292,-0.17706581950187683,-0.1622008979320526,1724940549.6819353
1724940549.738513,4.55,-0.016068887710571467,1724940549744496600,1724940549736442600,0.0,-0.0235294122248888,0.0,11.232963562011719,-0.005952693987637758,0.03147198632359505,68.27283477783203,330.94671630859375,0.3056897819042206,0.37544530630111694,-0.1604343056678772,-0.1626281887292862,1724940549.7364428
1724940549.7735035,4.6000000000000005,-0.0010594367980951702,1724940549775498400,1724940549769514500,0.0,-0.0235294122248888,0.0,11.216672897338867,-0.005787868984043598,0.030438929796218872,68.50568389892578,330.94818115234375,0.305637001991272,0.3684920072555542,-0.15539363026618958,-0.162750244140625,1724940549.7695146
1724940549.8241177,4.65,-0.0016735553741451525,1724940549828018700,1724940549823120300,0.0,-0.0235294122248888,0.0,11.156758308410645,-0.005303411278873682,0.027309097349643707,69.25663757324219,330.9527587890625,0.30547744035720825,0.345185250043869,-0.14016230404376984,-0.1631774604320526,1724940549.8231206
1724940549.8875685,4.7,-0.015124368667602361,1724940549891558500,1724940549887568500,0.0,-0.0235294122248888,0.0,11.090059280395508,-0.004918778780847788,0.02474737912416458,70.01554870605469,330.95703125,0.305347740650177,0.3205788731575012,-0.12777917087078094,-0.1635436862707138,1724940549.8875685
1724940549.9544783,4.75,-0.03203415870666504,1724940549955475400,1724940549951484800,0.0,-0.0235294122248888,0.0,11.044337272644043,-0.004726520739495754,0.023449312895536423,70.51809692382812,330.9596862792969,0.3052831292152405,0.30387094616889954,-0.12158419191837311,-0.1637573093175888,1724940549.951485
1724940549.9789476,4.800000000000001,-0.006503534317015891,1724940549987494400,1724940549982938900,0.0,0.0235294122248888,0.0,10.999165534973145,-0.004583223722875118,0.022493483498692513,71.00811767578125,330.9620666503906,0.3052360415458679,0.28734955191612244,-0.11709675937891006,-0.1639709323644638,1724940549.982939
1724940550.0279684,4.8500000000000005,-0.005524301528930131,1724940550029965200,1724940550025018400,0.0,0.0235294122248888,0.0,10.95292854309082,0.0031452749390155077,0.02176220342516899,71.50594329833984,330.9646911621094,0.3052023947238922,0.27575498819351196,-0.11388656497001648,-0.1625671088695526,1724940550.0250185
1724940550.0869253,4.9,-0.014481163024901988,1724940550092228600,1724940550090234000,0.0,0.0235294122248888,0.0,10.884361267089844,0.007929232902824879,0.021090850234031677,72.24044799804688,330.9686584472656,0.30517372488975525,0.271280437707901,-0.11114083230495453,-0.1599731296300888,1724940550.0902343
1724940550.13995,4.95,-0.01750593185424787,1724940550146442200,1724940550143939800,0.0,0.0235294122248888,0.0,10.838107109069824,0.008839360438287258,0.02084309421479702,72.73472595214844,330.971435546875,0.3051649332046509,0.27408745884895325,-0.11032120883464813,-0.1590270698070526,1724940550.14394
1724940550.200437,5.0,-0.027992963790893555,1724940550198441800,1724940550197444200,0.0,0.0235294122248888,0.0039215688593685,10.793060302734375,0.008899754844605923,0.020698489621281624,73.21562194824219,330.97406005859375,0.30516189336776733,0.2799166142940521,-0.11001385003328323,-0.1585388034582138,1724940550.1974442
1724940550.2249186,5.050000000000001,-0.0024744987487785863,1724940550219929400,1724940550219929400,0.0,0.0235294122248888,0.0078431377187371,10.773046493530273,0.008781792595982552,0.02065974287688732,73.42913055419922,330.9753112792969,0.3051617741584778,0.2832888662815094,-0.11001385003328323,-0.1584167331457138,1724940550.2199295
1724940550.2846043,5.1000000000000005,-0.01216020584106392,1724940550282608100,1724940550282608100,0.0,0.0235294122248888,0.0156862754374742,10.703478813171387,0.008113003335893154,0.0205980371683836,74.18313598632812,330.9794921875,0.30516552925109863,0.29785260558128357,-0.11038268357515335,-0.1581725776195526,1724940550.2826083
1724940550.3396,5.15,-0.017155981063842418,1724940550335513600,1724940550335513600,0.0,0.0235294122248888,0.0235294122248888,10.65939998626709,0.007634958252310753,0.020603936165571213,74.67446899414062,330.9822998046875,0.305170476436615,0.3090152144432068,-0.11086762696504593,-0.1580505222082138,1724940550.3355136
1724940550.398076,5.2,-0.025631952285766424,1724940550408950500,1724940550400073800,0.0,0.0235294122248888,0.039215687662363,10.59681510925293,0.007015736307948828,0.020672960206866264,75.4112548828125,330.9867858886719,0.3051811158657074,0.32738810777664185,-0.11187849193811417,-0.1577758640050888,1724940550.4000738
1724940550.4226766,5.25,-0.00023245811462402344,1724940550430437700,1724940550421678900,0.0,0.0235294122248888,0.0470588244497776,10.578332901000977,0.0068549541756510735,0.020709944888949394,75.64188385009766,330.98822021484375,0.3051852285861969,0.33343642950057983,-0.1122746467590332,-0.1576843112707138,1724940550.421679
1724940550.4755816,5.300000000000001,-0.0031375408172600316,1724940550483457400,1724940550474584300,0.0,0.0235294122248888,0.0509803928434848,10.525359153747559,0.006454508285969496,0.02087039314210415,76.34455871582031,330.99273681640625,0.30520036816596985,0.3525131046772003,-0.1137089803814888,-0.15740966796875,1724940550.4745843
1724940550.533461,5.3500000000000005,-0.011016988754271928,1724940550536453300,1724940550528473100,0.0,0.0235294122248888,0.0509803928434848,10.492632865905762,0.0062581575475633144,0.021006271243095398,76.80998229980469,330.9958190917969,0.3052118122577667,0.3655575215816498,-0.1148018166422844,-0.1572265774011612,1724940550.5284731
1724940550.6009443,5.4,-0.028500175476073863,1724940550609501200,1724940550603937400,0.0,0.0235294122248888,0.0509803928434848,10.445107460021973,0.006039733067154884,0.021229848265647888,77.51690673828125,331.0005798339844,0.3052300214767456,0.3858162760734558,-0.11655034124851227,-0.1569518893957138,1724940550.6039374
1724940550.6289563,5.45,-0.006512212753295721,1724940550630950800,1724940550625006600,0.0,0.0235294122248888,0.0509803928434848,10.430715560913086,0.005988438613712788,0.021293720230460167,77.7354507446289,331.00213623046875,0.3052354156970978,0.3921610116958618,-0.11706260591745377,-0.1568908840417862,1724940550.6250067
1724940550.689497,5.5,-0.017052888870239258,1724940550694483500,1724940550690494000,0.0,0.0235294122248888,0.0549019612371921,10.385130882263184,0.005864092148840427,0.021471785381436348,78.43514251708984,331.0072326660156,0.30525097250938416,0.4126633107662201,-0.11855841428041458,-0.1566772162914276,1724940550.690494
1724940550.740065,5.550000000000001,-0.01762099266052175,1724940550746649400,1724940550744053100,0.0,0.0235294122248888,0.0588235296308994,10.341146469116211,0.0057882401160895824,0.0215919092297554,79.1240463256836,331.0124816894531,0.30526313185691833,0.4330557882785797,-0.11971955001354218,-0.156524658203125,1724940550.7440531
1724940550.798479,5.6000000000000005,-0.02603497505187935,1724940550800473800,1724940550797159100,0.0,0.0235294122248888,0.0588235296308994,10.312952041625977,0.005756441503763199,0.02164277620613575,79.57733154296875,331.01611328125,0.3052694499492645,0.4465535879135132,-0.1203274354338646,-0.15643310546875,1724940550.7971592
1724940550.8295562,5.65,-0.007112121582030895,1724940550831551100,1724940550828558900,0.0,0.0235294122248888,0.0588235296308994,10.285104751586914,0.0057343002408742905,0.021679379045963287,80.03468322753906,331.01983642578125,0.30527496337890625,0.4602263271808624,-0.12085335701704025,-0.1563720852136612,1724940550.828559
1724940550.8925385,5.7,-0.020094442367553533,1724940550894532100,1724940550891540700,0.0,0.0235294122248888,0.0588235296308994,10.258222579956055,0.005720094311982393,0.021701514720916748,80.4815444946289,331.02362060546875,0.30527958273887634,0.4736292362213135,-0.12130415439605713,-0.1563415676355362,1724940550.8915408
1724940550.9554274,5.75,-0.03298330307006836,1724940550957928000,1724940550954429300,0.0,0.0235294122248888,0.0666666701436042,10.217425346374512,0.005708673037588596,0.021707959473133087,81.16595458984375,331.0295104980469,0.30528518557548523,0.4942193329334259,-0.12182324379682541,-0.156280517578125,1724940550.9544294
1724940550.9805212,5.800000000000001,-0.008077096939086204,1724940550979525200,1724940550976527000,0.0,0.0235294122248888,0.0666666701436042,10.202752113342285,0.005707042757421732,0.02171110175549984,81.41425323486328,331.03179931640625,0.30528688430786133,0.5017054677009583,-0.12200766056776047,-0.1562805026769638,1724940550.9765272
1724940551.0454469,5.8500000000000005,-0.023002767562865678,1724940551053428300,1724940551050438300,0.0,-0.0235294122248888,0.0705882385373115,10.152321815490723,-0.0017456732457503676,0.021715283393859863,82.30176544189453,331.0398254394531,0.30529239773750305,0.5235490798950195,-0.12252675741910934,-0.1577148288488388,1724940551.0504384
1724940551.0730076,5.9,-0.0005634784698482775,1724940551074005100,1724940551071013300,0.0,-0.0235294122248888,0.0745098069310188,10.139679908752441,-0.004040071275085211,0.02172183431684971,82.53359985351562,331.0418701171875,0.30529388785362244,0.5251361131668091,-0.1226770207285881,-0.15878291428089142,1724940551.0710135
1724940551.122578,5.95,-0.00013380050659161924,1724940551128463600,1724940551123573900,0.0,-0.0235294122248888,0.0862745121121406,10.116151809692383,-0.00651552202180028,0.02173413150012493,82.9786605834961,331.0457458496094,0.3052971661090851,0.5241259336471558,-0.12299121171236038,-0.1604003608226776,1724940551.123574
1724940551.1846483,6.0,-0.012204170227050781,1724940551181654000,1724940551179660600,0.0,-0.0235294122248888,0.1215686276555061,10.094696998596191,-0.00744645344093442,0.021752458065748215,83.41504669189453,331.0494079589844,0.30530107021331787,0.5192017555236816,-0.12335321307182312,-0.1613769382238388,1724940551.1796606
1724940551.2529373,6.050000000000001,-0.03049321174621511,1724940551253933000,1724940551251940100,0.0,-0.0235294122248888,0.1529411822557449,10.063225746154785,-0.007432087324559689,0.021938495337963104,84.30001068115234,331.05682373046875,0.30531617999076843,0.5015342235565186,-0.12478754669427872,-0.1621093600988388,1724940551.2519403
1724940551.2775583,6.1000000000000005,-0.005114221572875444,1724940551275458700,1724940551273463700,0.0,-0.0235294122248888,0.1607843190431594,10.058343887329102,-0.007279117126017809,0.022044263780117035,84.53282928466797,331.05877685546875,0.3053228259086609,0.49580517411231995,-0.12545691430568695,-0.1621703952550888,1724940551.273464
1724940551.3391676,6.15,-0.016723489761352184,1724940551339167600,1724940551336427100,0.0,-0.0235294122248888,0.168627455830574,10.052644729614258,-0.006961225066334009,0.022299371659755707,84.9810791015625,331.0624084472656,0.30533909797668457,0.48399466276168823,-0.12698687613010406,-0.1622619330883026,1724940551.3364272
1724940551.399033,6.2,-0.026588964462280096,1724940551403021400,1724940551402024400,0.0,-0.0235294122248888,0.1725490242242813,10.050811767578125,-0.00642743706703186,0.02297889068722725,85.85279083251953,331.0691223144531,0.3053799271583557,0.45915624499320984,-0.130893737077713,-0.1624145209789276,1724940551.4020245
1724940551.426971,6.25,-0.004526853561401367,1724940551424471600,1724940551423474800,0.0,-0.0235294122248888,0.1725490242242813,10.050811767578125,-0.00642743706703186,0.02297889068722725,85.85279083251953,331.0691223144531,0.3053799271583557,0.45915624499320984,-0.130893737077713,-0.1624145209789276,1724940551.4234748
1724940551.4928348,6.300000000000001,-0.020390701293944602,1724940551497346100,1724940551497346100,0.0,-0.0235294122248888,0.1882352977991104,10.05571174621582,-0.006073744967579842,0.023704616352915764,86.75930786132812,331.075927734375,0.3054227828979492,0.431989461183548,-0.13497819006443024,-0.1626586765050888,1724940551.4973462
1724940551.553514,6.3500000000000005,-0.031069898605346147,1724940551550521200,1724940551550521200,0.0,-0.0235294122248888,0.1960784345865249,10.060500144958496,-0.005965508054941893,0.024023512378335,87.1990966796875,331.0789794921875,0.30544090270996094,0.4185831844806671,-0.13671988248825073,-0.16278076171875,1724940551.5505211
1724940551.5791268,6.4,-0.006682729721068981,1724940551582111600,1724940551582111600,0.0,-0.0235294122248888,0.2000000029802322,10.067103385925293,-0.005888227839022875,0.02431713044643402,87.6326904296875,331.08197021484375,0.30545732378959656,0.40529966354370117,-0.13830448687076569,-0.162872314453125,1724940551.5821116
1724940551.6445098,6.45,-0.022065687179565252,1724940551647549600,1724940551646505100,0.0,-0.0235294122248888,0.2039215713739395,10.080278396606445,-0.005815305281430483,0.024719562381505966,88.28594207763672,331.08624267578125,0.30547934770584106,0.38525140285491943,-0.14040818810462952,-0.1630248725414276,1724940551.6465054
1724940551.6784449,6.5,-0.0060007572174072266,1724940551679441200,1724940551678444900,0.0,-0.0235294122248888,0.2039215713739395,10.085001945495605,-0.005800022277981043,0.024838866665959358,88.49605560302734,331.0876159667969,0.30548563599586487,0.37880393862724304,-0.14102290570735931,-0.163055419921875,1724940551.6784449
1724940551.7326226,6.550000000000001,-0.010178518295287375,1724940551730628100,1724940551729631600,0.0,-0.0235294122248888,0.2039215713739395,10.095551490783691,-0.005776611156761646,0.02506403438746929,88.93563079833984,331.09033203125,0.3054977059364319,0.36532196402549744,-0.1421498954296112,-0.163116455078125,1724940551.7296317
1724940551.7844684,6.6000000000000005,-0.01202430725097603,1724940551783468800,1724940551782472800,0.0,-0.0235294122248888,0.2078431397676468,10.112695693969727,-0.005755353253334761,0.025364158675074577,89.61193084716797,331.0943298339844,0.30551308393478394,0.3446086347103119,-0.1436183750629425,-0.1632080078125,1724940551.7824728
1724940551.8430011,6.65,-0.020557022094726207,1724940551848961000,1724940551847961500,0.0,-0.0235294122248888,0.2078431397676468,10.131016731262207,-0.005743995774537325,0.025604210793972015,90.29792022705078,331.09814453125,0.30552443861961365,0.3236345648765564,-0.1447112113237381,-0.163238525390625,1724940551.8479617
1724940551.8944669,6.7,-0.02202277183532697,1724940551891474900,1724940551890477500,0.0,-0.0235294122248888,0.2078431397676468,10.143200874328613,-0.005739723332226276,0.025725962594151497,90.73806762695312,331.1004943847656,0.30552980303764343,0.3101974129676819,-0.14523030817508698,-0.1632690578699112,1724940551.8904777
1724940551.9264271,6.75,-0.003983020782470703,1724940551923436700,1724940551922438200,0.0,-0.0235294122248888,0.2078431397676468,10.149911880493164,-0.005737816449254751,0.02578001655638218,90.97858428955078,331.10174560546875,0.3055322468280792,0.3028608560562134,-0.14544203877449036,-0.1632995307445526,1724940551.9224381
1724940551.987957,6.800000000000001,-0.015512895584105735,1724940551986669000,1724940551985159600,0.0,-0.0235294122248888,0.2078431397676468,10.168145179748535,-0.005733263213187456,0.025914503261446953,91.6295394897461,331.10491943359375,0.3055371344089508,0.2830216884613037,-0.14593380689620972,-0.163299560546875,1724940551.9851599
1724940552.0415277,6.8500000000000005,-0.019083642959594194,1724940552039532700,1724940552038535500,0.0,-0.0235294122248888,0.2039215713739395,10.180416107177734,-0.00572980334982276,0.025978459045290947,92.06783294677734,331.10693359375,0.3055392801761627,0.26967522501945496,-0.14611822366714478,-0.163330078125,1724940552.0385356
1724940552.077982,6.9,-0.0055378437042232775,1724940552082971900,1724940552080975700,0.0,-0.0235294122248888,0.2039215713739395,10.192761421203613,-0.005726122297346592,0.02603866159915924,92.5115737915039,331.1088562011719,0.30554068088531494,0.2561691999435425,-0.14626848697662354,-0.1633300632238388,1724940552.0809758
1724940552.13695,6.95,-0.014505910873412908,1724940552136950000,1724940552134451100,0.0,-0.0235294122248888,0.2000000029802322,10.210926055908203,-0.005718627478927374,0.026095274835824966,93.19416809082031,331.1116027832031,0.3055413067340851,0.23539775609970093,-0.14632996916770935,-0.163360595703125,1724940552.1344514
1724940552.1944244,7.0,-0.02198028564453125,1724940552199931900,1724940552198934700,0.0,-0.0235294122248888,0.2000000029802322,10.227768898010254,-0.0057082101702690125,0.026116272434592247,93.87742614746094,331.1141052246094,0.3055400252342224,0.2145930677652359,-0.1462070196866989,-0.163360595703125,1724940552.1989348
1724940552.2549026,7.050000000000001,-0.03245849609374929,1724940552251909500,1724940552250912600,0.0,-0.0235294122248888,0.1960784345865249,10.238118171691895,-0.005700195673853159,0.02610805630683899,94.31822204589844,331.1155700683594,0.3055383563041687,0.2011597603559494,-0.14602260291576385,-0.1633605808019638,1724940552.2509127
1724940552.2844853,7.1000000000000005,-0.01204123497009224,1724940552283488200,1724940552282491400,0.0,-0.0235294122248888,0.1960784345865249,10.248076438903809,-0.005691157653927803,0.026095498353242874,94.76722717285156,331.1169738769531,0.3055361211299896,0.18746419250965118,-0.14581087231636047,-0.1633911281824112,1724940552.2824914
1724940552.3307624,7.15,-0.0083182811737057,1724940552337278000,1724940552336258700,0.0,-0.0235294122248888,0.1921568661928177,10.257568359375,-0.005681835580617189,0.02607729285955429,95.21297454833984,331.1183166503906,0.3055335283279419,0.17385610938072205,-0.14557181298732758,-0.16339111328125,1724940552.336259
1724940552.3899865,7.2,-0.01754240989685041,1724940552389986600,1724940552388989600,0.0,-0.0235294122248888,0.1921568661928177,10.270622253417969,-0.005667523946613073,0.026037871837615967,95.8650894165039,331.1200256347656,0.30552938580513,0.153924822807312,-0.14516882598400116,-0.163421630859375,1724940552.3889897
1724940552.4488237,7.25,-0.02637958526611328,1724940552452815900,1724940552451819200,0.0,-0.0235294122248888,0.1882352977991104,10.279169082641602,-0.005657531786710024,0.02600756101310253,96.31945037841797,331.1211242675781,0.3055263161659241,0.14002202451229095,-0.14486829936504364,-0.163421630859375,1724940552.4518194
1724940552.4788022,7.300000000000001,-0.006358098983763938,1724940552483788400,1724940552482791500,0.0,-0.0235294122248888,0.1882352977991104,10.28711986541748,-0.005647428799420595,0.025975648313760757,96.76534271240234,331.1220703125,0.3055233061313629,0.12636490166187286,-0.14458826184272766,-0.1634216457605362,1724940552.4827914
1724940552.542949,7.3500000000000005,-0.020504856109618608,1724940552548939500,1724940552547940000,0.0,-0.0235294122248888,0.1843137294054031,10.298351287841797,-0.005631581414490938,0.025924282148480415,97.44922637939453,331.1232604980469,0.30551862716674805,0.10538799315690994,-0.14413747191429138,-0.1634521335363388,1724940552.5479403
1724940552.5775905,7.4,-0.005146360397338512,1724940552580683300,1724940552579684200,0.0,-0.0235294122248888,0.1803921610116958,10.301996231079102,-0.005626057740300894,0.025904711335897446,97.69048309326172,331.1236267089844,0.3055169880390167,0.09797901660203934,-0.14398038387298584,-0.1634521335363388,1724940552.5796843
1724940552.6369774,7.45,-0.014533329010009588,1724940552633480200,1724940552632483800,0.0,-0.0235294122248888,0.1490196138620376,10.310590744018555,-0.0056105987168848515,0.025843026116490364,98.343994140625,331.1244812011719,0.3055122196674347,0.07788486033678055,-0.14352275431156158,-0.1634826511144638,1724940552.632484
1724940552.6969998,7.5,-0.024555683135986328,1724940552697998200,1724940552696999600,0.0,-0.0235294122248888,0.105882354080677,10.311939239501953,-0.005587560590356588,0.025703713297843933,99.03252410888672,331.12506103515625,0.3055039644241333,0.05662029609084129,-0.1427304595708847,-0.1634826511144638,1724940552.6969998
1724940552.7249258,7.550000000000001,-0.002481651306151633,1724940552730522200,1724940552728528100,0.0,-0.0235294122248888,0.0980392172932624,10.309406280517578,-0.005576550494879484,0.025626057758927345,99.24586486816406,331.1252746582031,0.3054995834827423,0.04998936504125595,-0.14233429729938507,-0.1634826511144638,1724940552.7285283
1724940552.786922,7.6000000000000005,-0.01447787284851021,1724940552793908200,1724940552791913500,0.0,-0.0235294122248888,0.0862745121121406,10.29465103149414,-0.00552409840747714,0.025221867486834526,99.92103576660156,331.12554931640625,0.305478036403656,0.028812050819396973,-0.14028525352478027,-0.1635131537914276,1724940552.7919135
1724940552.8627355,7.65,-0.04029140472412074,1724940552869250600,1724940552866236000,0.0,-0.0235294122248888,0.0,10.272432327270508,-0.005459276027977467,0.02468184381723404,100.57183074951172,331.1255798339844,0.3054496645927429,0.008112464100122452,-0.13757365942001343,-0.1635436862707138,1724940552.866236
1724940552.892943,7.7,-0.020498800277709783,1724940552889950900,1724940552887956700,0.0,-0.0235294122248888,0.0,10.24862289428711,-0.005400175228714943,0.02421531267464161,101.00464630126953,331.12548828125,0.30542582273483276,-0.005859374534338713,-0.13528555631637573,-0.1635741889476776,1724940552.8879569
1724940552.923739,7.75,-0.001294851303100586,1724940552920747100,1724940552918751100,0.0,-0.0705882385373115,0.0,10.231988906860352,-0.005366378463804722,0.023913471028208733,101.24275207519531,331.12542724609375,0.30541056394577026,-0.013610838912427425,-0.13381706178188324,-0.1636047214269638,1724940552.918751
1724940552.979517,7.800000000000001,-0.007072877883910422,1724940552985500300,1724940552983505500,0.0,-0.0705882385373115,0.0,10.180370330810547,-0.014659374952316284,0.023014090955257416,101.88459777832031,331.12469482421875,0.3053629398345947,-0.0443725548684597,-0.12927497923374176,-0.1660156100988388,1724940552.9835055
1724940553.038535,7.8500000000000005,-0.01609101295471138,1724940553037536000,1724940553036520900,0.0,-0.0705882385373115,0.0,10.142026901245117,-0.01719435676932335,0.022360285744071007,102.32231903076172,331.1238098144531,0.30532923340797424,-0.0728759691119194,-0.12603063881397247,-0.167694091796875,1724940553.036521
1724940553.101002,7.9,-0.02855787277221644,1724940553101002100,1724940553100004900,0.0,-0.0705882385373115,0.0,10.080309867858887,-0.018333127722144127,0.021412881091237068,103.00175476074219,331.1219482421875,0.30528053641319275,-0.1251220852136612,-0.12139977514743805,-0.1691284030675888,1724940553.100005
1724940553.128,7.95,-0.005555915832519354,1724940553132988900,1724940553131992100,0.0,-0.0705882385373115,0.0,10.040399551391602,-0.018257219344377518,0.020900962874293327,103.4335708618164,331.1204528808594,0.30525505542755127,-0.1617736667394638,-0.11895456910133362,-0.1694946140050888,1724940553.131992
1724940553.1871092,8.0,-0.01466512680053711,1724940553185606500,1724940553184609100,0.0,-0.0705882385373115,0.0,9.999747276306152,-0.017963116988539696,0.020473213866353035,103.87068176269531,331.1186218261719,0.3052346408367157,-0.2006835639476776,-0.11700113117694855,-0.1696777194738388,1724940553.1846092
1724940553.242791,8.05,-0.020346832275389914,1724940553238801300,1724940553238801300,0.0,-0.0705882385373115,0.0,9.938082695007324,-0.01743447221815586,0.01998649537563324,104.53107452392578,331.11541748046875,0.30521297454833984,-0.261871337890625,-0.11493158340454102,-0.169830322265625,1724940553.2388015
1724940553.2934458,8.1,-0.021001720428467152,1724940553292448900,1724940553292448900,0.0,-0.0705882385373115,0.0,9.898055076599121,-0.017137955874204636,0.01976974867284298,104.95892333984375,331.11297607421875,0.3052043318748474,-0.30255126953125,-0.11413928866386414,-0.169921875,1724940553.2924492
1724940553.3315516,8.15,-0.009107446670531871,1724940553334543400,1724940553333546300,0.0,-0.0705882385373115,0.0,9.85733699798584,-0.016894791275262833,0.019596775993704796,105.59651947021484,331.1087341308594,0.3051973581314087,-0.364166259765625,-0.11346309632062912,-0.1701049655675888,1724940553.3335464
1724940553.392538,8.200000000000001,-0.020093965530394442,1724940553388548200,1724940553387551700,0.0,-0.0705882385373115,0.0,9.799165725708008,-0.016655046492815018,0.019428197294473648,106.01494598388672,331.10565185546875,0.3051956593990326,-0.405029296875,-0.11331283301115036,-0.1701965183019638,1724940553.3875518
1724940553.4326482,8.25,-0.010204076766967773,1724940553430652400,1724940553429656100,0.0,-0.0705882385373115,0.0,9.760303497314453,-0.01655522733926773,0.019347302615642548,106.42975616455078,331.102294921875,0.30519554018974304,-0.4457702338695526,-0.11327867954969406,-0.1702880859375,1724940553.4296563
1724940553.4965227,8.3,-0.02407855987548757,1724940553504739100,1724940553494528200,0.0,-0.0705882385373115,0.0,9.720754623413086,-0.01648845337331295,0.019282864406704903,106.85189819335938,331.09857177734375,0.3051964044570923,-0.48742666840553284,-0.11337430030107498,-0.1703796237707138,1724940553.4945283
1724940553.5270739,8.35,-0.004629755020141957,1724940553536565400,1724940553528073400,0.0,-0.0705882385373115,0.0,9.681846618652344,-0.01645839586853981,0.019226858392357826,107.2672348022461,331.0946350097656,0.3051978349685669,-0.52850341796875,-0.11349724978208542,-0.1704406589269638,1724940553.5280735
1724940553.575571,8.4,-0.0031269550323482775,1724940553579074800,1724940553571076600,0.0,-0.0705882385373115,0.0,9.641709327697754,-0.0164490994066,0.019179044291377068,107.69563293457031,331.0902404785156,0.30519965291023254,-0.57098388671875,-0.11368165910243988,-0.1705016791820526,1724940553.5710766
1724940553.6324854,8.450000000000001,-0.01004128456115616,1724940553632485300,1724940553627496200,0.0,-0.0235294122248888,0.0,9.581067085266113,-0.009057885967195034,0.01908508501946926,108.34304809570312,331.0831298828125,0.30520254373550415,-0.6303405165672302,-0.11397536098957062,-0.1690673679113388,1724940553.6274962
1724940553.694431,8.5,-0.021986961364746094,1724940553696930800,1724940553691439500,0.0,-0.0235294122248888,0.0509803928434848,9.526034355163574,-0.004577073268592358,0.01901037059724331,108.94393920898438,331.07623291015625,0.3052055835723877,-0.6719359755516052,-0.11426223069429398,-0.166534423828125,1724940553.6914396
1724940553.7535048,8.55,-0.03106064796447683,1724940553760488200,1724940553754501700,0.0,-0.0235294122248888,0.105882354080677,9.49370288848877,-0.003633222309872508,0.019008569419384003,109.34672546386719,331.07147216796875,0.3052096962928772,-0.694854736328125,-0.11465154588222504,-0.16558837890625,1724940553.7545018
1724940553.7871125,8.6,-0.014668369293213246,1724940553792525300,1724940553786608900,0.0,-0.0235294122248888,0.1372549086809158,9.468284606933594,-0.0034611120354384184,0.019094230607151985,109.74933624267578,331.0665588378906,0.3052184283733368,-0.7150572538375854,-0.11547800153493881,-0.1651000678539276,1724940553.786609
1724940553.8444922,8.65,-0.02204809188842738,1724940553846486600,1724940553840503100,0.0,-0.0235294122248888,0.1921568661928177,9.451038360595703,-0.0036731003783643246,0.019315503537654877,110.17362213134766,331.0612487792969,0.3052349090576172,-0.734161376953125,-0.11703528463840485,-0.164886474609375,1724940553.8405032
1724940553.872742,8.700000000000001,-0.00029783248901260606,1724940553878512300,1724940553871529000,0.0,-0.0235294122248888,0.2235294133424759,9.444540023803711,-0.004022266715764999,0.01969986781477928,110.5749282836914,331.0559997558594,0.3052598237991333,-0.75067138671875,-0.11944634467363358,-0.164764404296875,1724940553.871529
1724940553.9295444,8.75,-0.007100343704223633,1724940553941530700,1724940553934530900,0.0,-0.0235294122248888,0.2823529541492462,9.454862594604492,-0.004580001346766949,0.020605580881237984,111.19792938232422,331.0476989746094,0.3053159713745117,-0.7741087675094604,-0.12478754669427872,-0.1646118015050888,1724940553.934531
1724940553.9889426,8.8,-0.016498517990111594,1724940553994926600,1724940553987942500,0.0,-0.0235294122248888,0.3254902064800262,9.474555969238281,-0.004902309738099575,0.021396061405539513,111.60369873046875,331.0421142578125,0.30536311864852905,-0.7882689833641052,-0.12930230796337128,-0.1644592136144638,1724940553.9879425
1724940554.040977,8.85,-0.018532896041870472,1724940554048520000,1724940554041974400,0.0,-0.0235294122248888,0.3607843220233917,9.520475387573242,-0.005299115087836981,0.022777831181883812,112.1991958618164,331.0336608886719,0.3054437041282654,-0.8078612685203552,-0.13699309527873993,-0.1641845554113388,1724940554.0419743
1724940554.0740302,8.9,-0.001586055755614879,1724940554069513500,1724940554073034300,0.0,-0.0235294122248888,0.3803921639919281,9.542346000671387,-0.005420749541372061,0.023339305073022842,112.423583984375,331.03045654296875,0.3054755926132202,-0.8149718642234802,-0.14005301892757416,-0.1640625,1724940554.0730343
1724940554.1364043,8.950000000000001,-0.013960170745848544,1724940554142598100,1724940554137607700,0.0,-0.0235294122248888,0.4156862795352936,9.616414070129395,-0.005722094792872667,0.025010384619235992,113.06028747558594,331.0211181640625,0.30556848645210266,-0.8343505263328552,-0.14892543852329254,-0.1637572944164276,1724940554.1376078
1724940554.2114792,9.0,-0.03903508186340332,1724940554218430000,1724940554210482200,0.0,0.0235294122248888,0.4431372582912445,9.727466583251953,-0.0021400100085884333,0.027088651433587074,113.84281158447266,331.00933837890625,0.3056791424751282,-0.85565185546875,-0.15951906144618988,-0.162933349609375,1724940554.2104824
1724940554.238505,9.05,-0.016060781478881125,1724940554249637900,1724940554242494200,0.0,0.0235294122248888,0.4470588266849518,9.762577056884766,0.0012398924445733428,0.027648774906992912,114.06843566894531,331.0059814453125,0.3057083189487457,-0.8584288954734802,-0.16229212284088135,-0.16189570724964142,1724940554.2424943
1724940554.274456,9.1,-0.0020119190216068006,1724940554281430100,1724940554273456600,0.0,0.0235294122248888,0.4549019634723663,9.830449104309082,0.004930312279611826,0.028669267892837524,114.48937225341797,330.9997863769531,0.3057594299316406,-0.85858154296875,-0.16717569530010223,-0.1598510891199112,1724940554.2734568
1724940554.3326333,9.15,-0.01018915176391566,1724940554333630800,1724940554327647400,0.0,0.0235294122248888,0.4627451002597809,9.902587890625,0.006550622172653675,0.029640313237905502,114.92108917236328,330.9934997558594,0.30580586194992065,-0.8538207411766052,-0.17160166800022125,-0.1583862155675888,1724940554.3276477
1724940554.3947527,9.200000000000001,-0.022308635711668856,1724940554397270800,1724940554390763500,0.0,0.0235294122248888,0.4705882370471954,10.012238502502441,0.007035082206130028,0.03090120479464531,115.55714416503906,330.9844970703125,0.3058616518974304,-0.8408201932907104,-0.1769428700208664,-0.1573486030101776,1724940554.3907635
1724940554.4470334,9.25,-0.02458930015563965,1724940554450030300,1724940554443538200,0.0,0.0235294122248888,0.4823529422283172,10.091001510620117,0.006808893755078316,0.03167622163891792,116.0057601928711,330.9781494140625,0.3058931529521942,-0.8287963271141052,-0.17996181547641754,-0.15701289474964142,1724940554.4435382
1724940554.4939895,9.3,-0.02154536247253347,1724940554503717500,1724940554496493300,0.0,0.0235294122248888,0.4862745106220245,10.209863662719727,0.0062120817601680756,0.03265921026468277,116.67257690429688,330.9687805175781,0.30592918395996094,-0.80810546875,-0.18337690830230713,-0.1567382663488388,1724940554.4964933
